[
 {
  "id": 255315579,
  "name": "Burger King",
  "lat": 42.2749154,
  "lon": -71.752676,
  "address": "53 Boston Turnpike",
  "city": "Shrewsbury",
  "state": "MA"
 },
 {
  "id": 270121514,
  "name": "Burger King",
  "lat": 42.6075239,
  "lon": -89.6510149,
  "address": "548 8th Avenue",
  "city": "Monroe",
  "state": "WI"
 },
 {
  "id": 309159996,
  "name": "Burger King",
  "lat": 27.96406,
  "lon": -82.4358295,
  "address": "2302 North 21st Street",
  "city": "Tampa",
  "state": "FL"
 },
 {
  "id": 343317738,
  "name": "Burger King",
  "lat": 37.9023271,
  "lon": -122.3040885,
  "address": "6021 Central Avenue",
  "city": "El Cerrito",
  "state": "CA"
 },
 {
  "id": 344805280,
  "name": "Burger King",
  "lat": 41.5373203,
  "lon": -73.8995849,
  "address": "730 Route 9",
  "city": "Fishkill",
  "state": "NY"
 },
 {
  "id": 354782215,
  "name": "Burger King",
  "lat": 44.5985661,
  "lon": -75.1475798,
  "address": "18 State Highway 310",
  "city": "Canton",
  "state": "NY"
 },
 {
  "id": 356376514,
  "name": "Burger King",
  "lat": 41.1417812,
  "lon": -73.9899489,
  "address": "164 South Main Street",
  "city": "New City",
  "state": "NY"
 },
 {
  "id": 365355785,
  "name": "Burger King",
  "lat": 32.6934457,
  "lon": -117.1341801,
  "address": "1220 South 28th Street",
  "city": "San Diego",
  "state": "CA"
 },
 {
  "id": 365355963,
  "name": "Burger King",
  "lat": 32.636459,
  "lon": -117.021159,
  "address": "899 East H Street",
  "city": "Chula Vista",
  "state": "CA"
 },
 {
  "id": 365356669,
  "name": "Burger King",
  "lat": 32.7931022,
  "lon": -117.2540289,
  "address": "",
  "city": "",
  "state": ""
 },
 {
  "id": 365356734,
  "name": "Burger King",
  "lat": 33.192972,
  "lon": -117.377849,
  "address": "",
  "city": "",
  "state": ""
 },
 {
  "id": 365357276,
  "name": "Burger King",
  "lat": 33.1999452,
  "lon": -117.2464641,
  "address": "377 Vista Village Drive",
  "city": "Vista",
  "state": "CA"
 },
 {
  "id": 365357307,
  "name": "Burger King",
  "lat": 32.607962,
  "lon": -117.06638,
  "address": "1265 Third Avenue",
  "city": "Chula Vista",
  "state": "CA"
 },
 {
  "id": 365357419,
  "name": "Burger King",
  "lat": 32.761873,
  "lon": -117.065599,
  "address": "6135 El Cajon Boulevard",
  "city": "San Diego",
  "state": "CA"
 },
 {
  "id": 365357452,
  "name": "Burger King",
  "lat": 33.3752217,
  "lon": -117.2517162,
  "address": "825 South Main Avenue",
  "city": "Fallbrook",
  "state": "CA"
 },
 {
  "id": 390418935,
  "name": "Burger King",
  "lat": 41.8297978,
  "lon": -94.1026088,
  "address": "",
  "city": "",
  "state": ""
 },
 {
  "id": 419423990,
  "name": "Burger King",
  "lat": 36.6870937,
  "lon": -121.799631,
  "address": "",
  "city": "",
  "state": ""
 },
 {
  "id": 423739856,
  "name": "Burger King",
  "lat": 38.8927371,
  "lon": -104.7520678,
  "address": "4241 Austin Bluffs Parkway",
  "city": "Colorado Springs",
  "state": "CO"
 },
 {
  "id": 423742429,
  "name": "Burger King",
  "lat": 37.765234,
  "lon": -122.419109,
  "address": "2978 16th Street",
  "city": "",
  "state": ""
 },
 {
  "id": 432817342,
  "name": "Burger King",
  "lat": 37.7831519,
  "lon": -122.4211223,
  "address": "819 Van Ness Avenue",
  "city": "San Francisco",
  "state": "CA"
 },
 {
  "id": 436830234,
  "name": "Burger King",
  "lat": 43.1250552,
  "lon": -75.4146353,
  "address": "",
  "city": "Westmoreland",
  "state": "NY"
 },
 {
  "id": 443610533,
  "name": "Burger King",
  "lat": 44.978507,
  "lon": -123.0272509,
  "address": "3615 River Road North",
  "city": "Keizer",
  "state": "OR"
 },
 {
  "id": 446315593,
  "name": "Burger King",
  "lat": 43.0308196,
  "lon": -77.9065847,
  "address": "",
  "city": "",
  "state": ""
 },
 {
  "id": 446675588,
  "name": "Burger King",
  "lat": 32.8799364,
  "lon": -117.2357406,
  "address": "9500 Gil",
  "city": "La Jolla",
  "state": "CA"
 },
 {
  "id": 457403246,
  "name": "Burger King",
  "lat": 33.9932307,
  "lon": -117.056304,
  "address": "497 Sandalwood Drive",
  "city": "Calimesa",
  "state": "CA"
 },
 {
  "id": 461116194,
  "name": "Burger King",
  "lat": 42.3452961,
  "lon": -85.2320751,
  "address": "1500 West Michigan Avenue",
  "city": "Battle Creek",
  "state": "MI"
 },
 {
  "id": 462068988,
  "name": "Burger King",
  "lat": 29.1660828,
  "lon": -82.1682713,
  "address": "2696 South West College Road",
  "city": "Ocala",
  "state": "FL"
 },
 {
  "id": 466979851,
  "name": "Burger King",
  "lat": 31.3335686,
  "lon": -92.4092789,
  "address": "",
  "city": "",
  "state": ""
 },
 {
  "id": 469063940,
  "name": "Burger King",
  "lat": 28.8201754,
  "lon": -81.7764315,
  "address": "",
  "city": "",
  "state": ""
 },
 {
  "id": 471274833,
  "name": "Burger King",
  "lat": 37.162494,
  "lon": -83.766403,
  "address": "437 Richmond Road",
  "city": "Manchester",
  "state": "KY"
 },
 {
  "id": 472498678,
  "name": "Burger King",
  "lat": 29.8911914,
  "lon": -95.6405373,
  "address": "7802 Highway 6 North",
  "city": "Houston",
  "state": "TX"
 },
 {
  "id": 487082169,
  "name": "Burger King",
  "lat": 37.3954379,
  "lon": -122.0293185,
  "address": "773 North Mathilda Avenue",
  "city": "Sunnyvale",
  "state": "CA"
 },
 {
  "id": 499229636,
  "name": "Burger King",
  "lat": 35.3893961,
  "lon": -77.9197348,
  "address": "",
  "city": "",
  "state": ""
 },
 {
  "id": 506822463,
  "name": "Burger King",
  "lat": 39.9875591,
  "lon": -83.0277694,
  "address": "817 West 5th Avenue",
  "city": "Columbus",
  "state": "OH"
 },
 {
  "id": 515628016,
  "name": "Burger King",
  "lat": 34.2576653,
  "lon": -88.7165961,
  "address": "840 West Main Street",
  "city": "Tupelo",
  "state": "MS"
 },
 {
  "id": 529130196,
  "name": "Burger King",
  "lat": 36.7219588,
  "lon": -121.663534,
  "address": "131 Auto Center Drive",
  "city": "Salinas",
  "state": "CA"
 },
 {
  "id": 538514254,
  "name": "Burger King",
  "lat": 40.3169266,
  "lon": -75.3098576,
  "address": "730 Route 113",
  "city": "Souderton",
  "state": "PA"
 },
 {
  "id": 544351682,
  "name": "Burger King",
  "lat": 44.9631598,
  "lon": -122.9840687,
  "address": "2859 Lancaster Drive Northeast",
  "city": "Salem",
  "state": "OR"
 },
 {
  "id": 567075040,
  "name": "Burger King",
  "lat": 39.4348204,
  "lon": -74.6114219,
  "address": "6047 Black Horse Pike",
  "city": "Egg Harbor Township",
  "state": "NJ"
 },
 {
  "id": 567707824,
  "name": "Burger King",
  "lat": 43.3447095,
  "lon": -89.028892,
  "address": "101 Dix Street",
  "city": "Columbus",
  "state": "WI"
 },
 {
  "id": 580751558,
  "name": "Burger King",
  "lat": 34.0342549,
  "lon": -117.974446,
  "address": "14600 Valley Boulevard",
  "city": "La Puente",
  "state": "CA"
 },
 {
  "id": 588191795,
  "name": "Burger King",
  "lat": 34.0767549,
  "lon": -117.5510957,
  "address": "4649 Mills Circle",
  "city": "Ontario",
  "state": "CA"
 },
 {
  "id": 594553199,
  "name": "Burger King",
  "lat": 44.4511592,
  "lon": -88.0867621,
  "address": "1007 Main Avenue",
  "city": "De Pere",
  "state": "WI"
 },
 {
  "id": 596532769,
  "name": "Burger King",
  "lat": 32.8198714,
  "lon": -117.1730158,
  "address": "6401 Balboa Avenue",
  "city": "San Diego",
  "state": "CA"
 },
 {
  "id": 599196162,
  "name": "Green Tea",
  "lat": 44.5571263,
  "lon": -88.0578361,
  "address": "",
  "city": "",
  "state": ""
 },
 {
  "id": 616404718,
  "name": "Burger King",
  "lat": 34.1423883,
  "lon": -118.2391457,
  "address": "1200 East Colorado Street",
  "city": "Glendale",
  "state": "CA"
 },
 {
  "id": 617043303,
  "name": "Burger King",
  "lat": 46.7604175,
  "lon": -92.1292822,
  "address": "210 South 27 Avenue",
  "city": "Duluth",
  "state": "MN"
 },
 {
  "id": 619647206,
  "name": "Burger King",
  "lat": 39.4281989,
  "lon": -74.5050134,
  "address": "320 White Horse Pike",
  "city": "Absecon",
  "state": "NJ"
 },
 {
  "id": 626033700,
  "name": "Burger King",
  "lat": 34.8910074,
  "lon": -82.4013245,
  "address": "3250 North Pleasantburg Road",
  "city": "Greenville",
  "state": "SC"
 },
 {
  "id": 631419776,
  "name": "Burger King",
  "lat": 25.8596419,
  "lon": -80.3285817,
  "address": "",
  "city": "",
  "state": ""
 },
 {
  "id": 634781901,
  "name": "Burger King",
  "lat": 44.0571444,
  "lon": -75.7004529,
  "address": "",
  "city": "",
  "state": ""
 },
 {
  "id": 636016709,
  "name": "Burger King",
  "lat": 36.5060131,
  "lon": -82.5556908,
  "address": "1332 South John B Dennis Highway",
  "city": "Kingsport",
  "state": "TN"
 },
 {
  "id": 636566732,
  "name": "Burger King",
  "lat": 40.8482548,
  "lon": -81.9461998,
  "address": "4012 Burbank Road",
  "city": "Wooster",
  "state": "OH"
 },
 {
  "id": 637835955,
  "name": "Burger King",
  "lat": 39.739807,
  "lon": -104.9674956,
  "address": "1680 East Colfax Avenue",
  "city": "Denver",
  "state": "CO"
 },
 {
  "id": 638779015,
  "name": "Burger King",
  "lat": 44.0474031,
  "lon": -75.8067361,
  "address": "",
  "city": "Fort Drum",
  "state": "NY"
 },
 {
  "id": 660325507,
  "name": "Burger King",
  "lat": 41.178491,
  "lon": -85.0973421,
  "address": "3710 East Dupont Road",
  "city": "Fort Wayne",
  "state": "IN"
 },
 {
  "id": 661977881,
  "name": "Burger King",
  "lat": 43.4467762,
  "lon": -93.3547407,
  "address": "828 471 Street",
  "city": "Northwood",
  "state": "IA"
 },
 {
  "id": 663296604,
  "name": "Burger King",
  "lat": 39.5473316,
  "lon": -77.9137873,
  "address": "66 Cordial Court",
  "city": "Falling Waters",
  "state": "WV"
 },
 {
  "id": 673894773,
  "name": "Burger King",
  "lat": 27.5724608,
  "lon": -99.4721819,
  "address": "7515 McPherson Road",
  "city": "Laredo",
  "state": "TX"
 },
 {
  "id": 683401736,
  "name": "Burger King",
  "lat": 36.7365839,
  "lon": -78.9195032,
  "address": "4010 North Halifax Road",
  "city": "South Boston",
  "state": "VA"
 },
 {
  "id": 690910221,
  "name": "Burger King",
  "lat": 42.4907978,
  "lon": -96.4044023,
  "address": "90 Pierce Street",
  "city": "Sioux City",
  "state": "IA"
 },
 {
  "id": 724831177,
  "name": "Burger King",
  "lat": 46.1841514,
  "lon": -119.1736362,
  "address": "2703 South Quillan Street",
  "city": "Kennewick",
  "state": "WA"
 },
 {
  "id": 729015060,
  "name": "Burger King",
  "lat": 39.5809954,
  "lon": -104.9594477,
  "address": "7480 South University Boulevard",
  "city": "Centennial",
  "state": "CO"
 },
 {
  "id": 738302465,
  "name": "Burger King",
  "lat": 41.1592223,
  "lon": -87.6635856,
  "address": "3 Gladiolus Street",
  "city": "Momence",
  "state": "IL"
 },
 {
  "id": 746742001,
  "name": "Burger King",
  "lat": 42.2557342,
  "lon": -71.0332417,
  "address": "670 Adams Street",
  "city": "Quincy",
  "state": "MA"
 },
 {
  "id": 757511261,
  "name": "Burger King",
  "lat": 28.755674,
  "lon": -81.3538971,
  "address": "",
  "city": "",
  "state": "FL"
 },
 {
  "id": 760153214,
  "name": "Burger King",
  "lat": 35.022355,
  "lon": -82.5036592,
  "address": "2921 Geer Highway",
  "city": "Marietta",
  "state": "SC"
 },
 {
  "id": 761332497,
  "name": "Burger King",
  "lat": 37.6651091,
  "lon": -97.2859519,
  "address": "4220 East Harry",
  "city": "Wichita",
  "state": "KS"
 },
 {
  "id": 761848808,
  "name": "Burger King",
  "lat": 38.4946862,
  "lon": -121.5234519,
  "address": "7225 Greenhaven Drive",
  "city": "Sacramento",
  "state": "CA"
 },
 {
  "id": 762320544,
  "name": "Burger King",
  "lat": 34.2045281,
  "lon": -118.222266,
  "address": "2060 Verdugo Boulevard",
  "city": "Montrose",
  "state": "CA"
 },
 {
  "id": 762947259,
  "name": "Burger King",
  "lat": 46.7999494,
  "lon": -92.1287978,
  "address": "208 East Central Entrance",
  "city": "Duluth",
  "state": "MN"
 },
 {
  "id": 763647389,
  "name": "Burger King",
  "lat": 31.904243,
  "lon": -106.4222321,
  "address": "10115 Rushing Street",
  "city": "El Paso",
  "state": "TX"
 },
 {
  "id": 775417611,
  "name": "Burger King",
  "lat": 43.8245526,
  "lon": -70.319985,
  "address": "57 Service Road",
  "city": "Gray",
  "state": "ME"
 },
 {
  "id": 790036677,
  "name": "Burger King",
  "lat": 45.6336057,
  "lon": -89.4078182,
  "address": "333 Lincoln Street",
  "city": "Rhinelander",
  "state": "WI"
 },
 {
  "id": 791826108,
  "name": "Burger King",
  "lat": 43.6249371,
  "lon": -89.7953307,
  "address": "611 North Frontage Road",
  "city": "Wisconsin Dells",
  "state": "WI"
 },
 {
  "id": 805568946,
  "name": "Burger King",
  "lat": 34.7983376,
  "lon": -86.5369558,
  "address": "925 Winchester Road",
  "city": "Huntsville",
  "state": "AL"
 },
 {
  "id": 806257722,
  "name": "Burger King",
  "lat": 42.2623618,
  "lon": -84.4229295,
  "address": "1023 North West Avenue",
  "city": "Jackson",
  "state": "MI"
 },
 {
  "id": 809486359,
  "name": "Burger King",
  "lat": 40.5111539,
  "lon": -79.9475445,
  "address": "909 Butler Street",
  "city": "Pittsburgh",
  "state": "PA"
 },
 {
  "id": 821349257,
  "name": "Burger King",
  "lat": 28.0696171,
  "lon": -82.4274435,
  "address": "2902 East Fletcher Avenue",
  "city": "Tampa",
  "state": "FL"
 },
 {
  "id": 824630736,
  "name": "Burger King",
  "lat": 36.3303943,
  "lon": -78.4471768,
  "address": "567 Ruin Creek Road",
  "city": "Henderson",
  "state": "NC"
 },
 {
  "id": 829668388,
  "name": "Burger King",
  "lat": 40.0071433,
  "lon": -75.1280054,
  "address": "100 West Erie Avenue",
  "city": "Philadelphia",
  "state": "PA"
 },
 {
  "id": 832792284,
  "name": "Burger King",
  "lat": 28.0538085,
  "lon": -82.3952083,
  "address": "5301 East Fowler Avenue",
  "city": "Temple Terrace",
  "state": "FL"
 },
 {
  "id": 846503921,
  "name": "Burger King",
  "lat": 40.679391,
  "lon": -75.147234,
  "address": "1232 22 East",
  "city": "Phillipsburg",
  "state": "NJ"
 },
 {
  "id": 859558784,
  "name": "Burger King",
  "lat": 34.0001897,
  "lon": -118.08451,
  "address": "8890 Whittier Boulevard",
  "city": "Pico Rivera",
  "state": "CA"
 },
 {
  "id": 864278708,
  "name": "Burger King",
  "lat": 43.950202,
  "lon": -91.2601162,
  "address": "1540 South Holmen Drive",
  "city": "Holmen",
  "state": "WI"
 },
 {
  "id": 867942051,
  "name": "Burger King",
  "lat": 40.0274187,
  "lon": -83.1603969,
  "address": "3690 Main Street",
  "city": "Hilliard",
  "state": "OH"
 },
 {
  "id": 874235949,
  "name": "Burger King",
  "lat": 41.3590152,
  "lon": -86.3120459,
  "address": "2021 North Michigan Street",
  "city": "Plymouth",
  "state": "IN"
 },
 {
  "id": 880047298,
  "name": "Burger King",
  "lat": 37.0880337,
  "lon": -113.5830768,
  "address": "1185 South Main",
  "city": "Saint George",
  "state": "UT"
 },
 {
  "id": 886923359,
  "name": "Burger King",
  "lat": 45.6834765,
  "lon": -92.9858415,
  "address": "1560 West 4th Street",
  "city": "Rush City",
  "state": "MN"
 },
 {
  "id": 887596760,
  "name": "Burger King",
  "lat": 40.7096762,
  "lon": -74.011915,
  "address": "106 Liberty Street",
  "city": "New York",
  "state": "NY"
 },
 {
  "id": 891116488,
  "name": "Burger King",
  "lat": 30.3758096,
  "lon": -89.3777708,
  "address": "5400 West Aloha Boulevard",
  "city": "Diamondhead",
  "state": "MS"
 },
 {
  "id": 891116625,
  "name": "Burger King",
  "lat": 30.4252176,
  "lon": -89.0918586,
  "address": "9440 Highway 49 North",
  "city": "Gulfport",
  "state": "MS"
 },
 {
  "id": 892040430,
  "name": "Burger King",
  "lat": 32.3602341,
  "lon": -86.2137923,
  "address": "5525 Carmichael Road",
  "city": "Montgomery",
  "state": "AL"
 },
 {
  "id": 894539547,
  "name": "Burger King",
  "lat": 32.6440844,
  "lon": -85.3471232,
  "address": "1400 Columbus Parkway",
  "city": "Opelika",
  "state": "AL"
 },
 {
  "id": 894860518,
  "name": "Burger King",
  "lat": 33.9225944,
  "lon": -84.1714077,
  "address": "1600 Indian Trail Road",
  "city": "Norcross",
  "state": "GA"
 },
 {
  "id": 911546647,
  "name": "Burger King",
  "lat": 34.7732629,
  "lon": -86.5859067,
  "address": "3541 North Memorial Parkway",
  "city": "Huntsville",
  "state": "AL"
 },
 {
  "id": 914096686,
  "name": "Burger King",
  "lat": 34.7175593,
  "lon": -86.5782782,
  "address": "2116 Whitesburg Drive",
  "city": "Huntsville",
  "state": "AL"
 },
 {
  "id": 922196749,
  "name": "Burger King",
  "lat": 43.3600904,
  "lon": -124.2125719,
  "address": "881 South 1st Street",
  "city": "Coos Bay",
  "state": "OR"
 },
 {
  "id": 925286634,
  "name": "Burger King",
  "lat": 28.5169077,
  "lon": -81.2902539,
  "address": "2224 Goldenrod Road",
  "city": "Orlando",
  "state": "FL"
 },
 {
  "id": 925286645,
  "name": "Burger King",
  "lat": 28.4863921,
  "lon": -81.3094386,
  "address": "",
  "city": "",
  "state": ""
 },
 {
  "id": 925286657,
  "name": "Burger King",
  "lat": 28.4440109,
  "lon": -81.4267973,
  "address": "8409 South John Young Parkway",
  "city": "Orlando",
  "state": "FL"
 },
 {
  "id": 925286673,
  "name": "Burger King",
  "lat": 28.5980317,
  "lon": -81.2965273,
  "address": "",
  "city": "",
  "state": ""
 },
 {
  "id": 925286688,
  "name": "Burger King",
  "lat": 28.5943359,
  "lon": -81.364765,
  "address": "",
  "city": "",
  "state": ""
 },
 {
  "id": 925286691,
  "name": "Burger King",
  "lat": 28.5187772,
  "lon": -81.3110387,
  "address": "2222 South Semoran Boulevard",
  "city": "Orlando",
  "state": "FL"
 },
 {
  "id": 925286714,
  "name": "Burger King",
  "lat": 28.5784851,
  "lon": -81.4390827,
  "address": "",
  "city": "",
  "state": ""
 },
 {
  "id": 925286749,
  "name": "Burger King",
  "lat": 28.5523358,
  "lon": -81.5076634,
  "address": "8913 West Colonial Drive",
  "city": "Ocoee",
  "state": "FL"
 },
 {
  "id": 925286757,
  "name": "Burger King",
  "lat": 28.5396815,
  "lon": -81.1506031,
  "address": "375 South Avalon Park Boulevard",
  "city": "Orlando",
  "state": "FL"
 },
 {
  "id": 925286791,
  "name": "Burger King",
  "lat": 28.5506088,
  "lon": -81.5837897,
  "address": "",
  "city": "",
  "state": ""
 },
 {
  "id": 925286797,
  "name": "Burger King",
  "lat": 28.427562,
  "lon": -81.405319,
  "address": "2000 Consulate Drive",
  "city": "Orlando",
  "state": "FL"
 },
 {
  "id": 925286808,
  "name": "Burger King",
  "lat": 28.4857772,
  "lon": -81.4181986,
  "address": "",
  "city": "",
  "state": ""
 },
 {
  "id": 925286811,
  "name": "Burger King",
  "lat": 28.5527646,
  "lon": -81.3907325,
  "address": "",
  "city": "",
  "state": ""
 },
 {
  "id": 925286828,
  "name": "Burger King",
  "lat": 28.5731,
  "lon": -81.515302,
  "address": "1745 East Silverstar Road",
  "city": "Ocoee",
  "state": "FL"
 },
 {
  "id": 925893097,
  "name": "Burger King",
  "lat": 18.2053922,
  "lon": -67.1408012,
  "address": "",
  "city": "",
  "state": ""
 },
 {
  "id": 931648766,
  "name": "Burger King",
  "lat": 35.6237566,
  "lon": -117.6702096,
  "address": "139 North China Lake Boulevard",
  "city": "Ridgecrest",
  "state": "CA"
 },
 {
  "id": 945170065,
  "name": "Burger King",
  "lat": 34.0977757,
  "lon": -118.120631,
  "address": "600 East Main Street",
  "city": "Alhambra",
  "state": "CA"
 },
 {
  "id": 961008645,
  "name": "Tacos la Villa",
  "lat": 35.1320422,
  "lon": -118.457443,
  "address": "620 West Tehachapi Boulevard",
  "city": "Tehachapi",
  "state": "CA"
 },
 {
  "id": 976349360,
  "name": "Burger King",
  "lat": 37.7181634,
  "lon": -122.182006,
  "address": "1934 Davis Street",
  "city": "San Leandro",
  "state": "CA"
 },
 {
  "id": 976490024,
  "name": "Burger King",
  "lat": 44.7306421,
  "lon": -88.4468884,
  "address": "100 Express Way",
  "city": "Bonduel",
  "state": "WI"
 },
 {
  "id": 978909568,
  "name": "Burger King",
  "lat": 42.5633796,
  "lon": -83.0861065,
  "address": "2210 Metropolitan Parkway",
  "city": "Sterling Heights",
  "state": "MI"
 },
 {
  "id": 989505416,
  "name": "Burger King",
  "lat": 42.9727074,
  "lon": -77.1736411,
  "address": "",
  "city": "",
  "state": ""
 },
 {
  "id": 990122208,
  "name": "Burger King",
  "lat": 43.0171436,
  "lon": -74.8028908,
  "address": "210 West",
  "city": "Little Falls",
  "state": "NY"
 },
 {
  "id": 990803273,
  "name": "Burger King",
  "lat": 41.5923948,
  "lon": -74.0885826,
  "address": "",
  "city": "",
  "state": ""
 },
 {
  "id": 994637489,
  "name": "Burger King",
  "lat": 38.2675093,
  "lon": -80.8410896,
  "address": "130 Irish Street",
  "city": "Summersville",
  "state": "WV"
 },
 {
  "id": 1014636800,
  "name": "Burger King",
  "lat": 42.2848656,
  "lon": -83.8377617,
  "address": "151 South Zeeb Road",
  "city": "Ann Arbor",
  "state": "MI"
 },
 {
  "id": 1036344085,
  "name": "Burger King",
  "lat": 34.098548,
  "lon": -118.311626,
  "address": "5609 West Sunset Boulevard",
  "city": "Los Angeles",
  "state": "CA"
 },
 {
  "id": 1039982251,
  "name": "Burger King",
  "lat": 29.9684541,
  "lon": -90.1062962,
  "address": "",
  "city": "",
  "state": ""
 },
 {
  "id": 1047275242,
  "name": "Burger King",
  "lat": 41.1601939,
  "lon": -104.5204691,
  "address": "4000 I-80 Service Road",
  "city": "Burns",
  "state": "WY"
 },
 {
  "id": 1106293575,
  "name": "Burger King",
  "lat": 29.9663346,
  "lon": -90.0878548,
  "address": "2727 Canal Street",
  "city": "New Orleans",
  "state": "LA"
 },
 {
  "id": 1126624425,
  "name": "Burger King",
  "lat": 37.6372782,
  "lon": -122.1007633,
  "address": "26251 Hesperian Boulevard",
  "city": "Hayward",
  "state": "CA"
 },
 {
  "id": 1130140393,
  "name": "Burger King",
  "lat": 40.5684084,
  "lon": -74.5517551,
  "address": "607 West Union Avenue",
  "city": "Bound Brook",
  "state": "NJ"
 },
 {
  "id": 1133364560,
  "name": "Burger King",
  "lat": 35.9561826,
  "lon": -86.8177323,
  "address": "1911 Mallory Lane",
  "city": "Franklin",
  "state": "TN"
 },
 {
  "id": 1138960992,
  "name": "Burger King",
  "lat": 34.3839762,
  "lon": -92.8283628,
  "address": "",
  "city": "",
  "state": ""
 },
 {
  "id": 1143985965,
  "name": "Burger King",
  "lat": 34.292219,
  "lon": -79.8888571,
  "address": "407 Lamar Road",
  "city": "Darlington",
  "state": "SC"
 },
 {
  "id": 1148567094,
  "name": "Burger King",
  "lat": 39.1921444,
  "lon": -77.244862,
  "address": "20430 Germantown Road",
  "city": "Germantown",
  "state": "MD"
 },
 {
  "id": 1164556686,
  "name": "Burger King",
  "lat": 22.0699123,
  "lon": -159.3198861,
  "address": "",
  "city": "",
  "state": ""
 },
 {
  "id": 1174970183,
  "name": "Burger King",
  "lat": 37.2207903,
  "lon": -121.861821,
  "address": "6477 Almaden Road",
  "city": "San Jose",
  "state": "CA"
 },
 {
  "id": 1179166664,
  "name": "Burger King",
  "lat": 36.2447393,
  "lon": -93.1162469,
  "address": "1308 North Main Street",
  "city": "Harrison",
  "state": "AR"
 },
 {
  "id": 1183475845,
  "name": "Burger King",
  "lat": 38.0777255,
  "lon": -117.2473526,
  "address": "1206 Highway 95",
  "city": "Tonopah",
  "state": "NV"
 },
 {
  "id": 1186305084,
  "name": "Burger King",
  "lat": 29.9726342,
  "lon": -90.0488162,
  "address": "2600 North Robertson Street",
  "city": "New Orleans",
  "state": "LA"
 },
 {
  "id": 1216199065,
  "name": "Burger King",
  "lat": 34.1002727,
  "lon": -118.0738858,
  "address": "5541 Rosemead Boulevard",
  "city": "Temple City",
  "state": "CA"
 },
 {
  "id": 1251736001,
  "name": "Burger King",
  "lat": 37.0545924,
  "lon": -100.9215946,
  "address": "1501 North Kansas Street",
  "city": "Liberal",
  "state": "KS"
 },
 {
  "id": 1252069628,
  "name": "Burger King",
  "lat": 39.8712252,
  "lon": -75.0812312,
  "address": "175 North Black Horse Pike",
  "city": "Bellmawr",
  "state": "NJ"
 },
 {
  "id": 1252155692,
  "name": "Burger King",
  "lat": 33.668058,
  "lon": -85.827166,
  "address": "1818 Quintard Avenue",
  "city": "Anniston",
  "state": "AL"
 },
 {
  "id": 1260145116,
  "name": "Burger King",
  "lat": 42.991453,
  "lon": -84.5465604,
  "address": "918 South US 27",
  "city": "St. Johns",
  "state": "MI"
 },
 {
  "id": 1269983091,
  "name": "Burger King",
  "lat": 38.9224698,
  "lon": -77.416716,
  "address": "3035 Centreville Road",
  "city": "Herndon",
  "state": "VA"
 },
 {
  "id": 1272585266,
  "name": "Burger King",
  "lat": 32.2771329,
  "lon": -81.0803811,
  "address": "18770 Whyte Hardee Boulevard",
  "city": "Hardeeville",
  "state": "SC"
 },
 {
  "id": 1293317568,
  "name": "Burger King",
  "lat": 39.1033896,
  "lon": -87.4244029,
  "address": "818 West Wolfe Street",
  "city": "Sulivan",
  "state": "IN"
 },
 {
  "id": 1294004693,
  "name": "Burger King",
  "lat": 33.9539034,
  "lon": -80.9245616,
  "address": "7915 Garners Ferry Road",
  "city": "Columbia",
  "state": "SC"
 },
 {
  "id": 1296380470,
  "name": "Burger King",
  "lat": 43.2512069,
  "lon": -77.647383,
  "address": "4355 Dewey Avenue",
  "city": "Greece",
  "state": "NY"
 },
 {
  "id": 1308459972,
  "name": "Burger King",
  "lat": 34.9564548,
  "lon": -82.1278783,
  "address": "107 Charlotte Highway",
  "city": "Lyman",
  "state": "SC"
 },
 {
  "id": 1312079887,
  "name": "Burger King",
  "lat": 32.113042,
  "lon": -81.2412417,
  "address": "415 US Highway 80",
  "city": "Pooler",
  "state": "GA"
 },
 {
  "id": 1316621194,
  "name": "Burger King",
  "lat": 40.919472,
  "lon": -98.3534957,
  "address": "1320 West 2nd Street",
  "city": "Grand Island",
  "state": "NE"
 },
 {
  "id": 1328094188,
  "name": "Burger King",
  "lat": 43.4219373,
  "lon": -95.124283,
  "address": "",
  "city": "",
  "state": ""
 },
 {
  "id": 1335188237,
  "name": "Burger King",
  "lat": 34.4273048,
  "lon": -117.572856,
  "address": "9760 Sheep Creek Road",
  "city": "Phelan",
  "state": "CA"
 },
 {
  "id": 1342458510,
  "name": "Burger King",
  "lat": 35.127113,
  "lon": -85.247447,
  "address": "4827 Hixson Pike",
  "city": "Hixson",
  "state": "TN"
 },
 {
  "id": 1345144996,
  "name": "Burger King",
  "lat": 43.6795465,
  "lon": -92.9801594,
  "address": "1409 4th Street Northwest",
  "city": "Austin",
  "state": "MN"
 },
 {
  "id": 1345343881,
  "name": "Burger King",
  "lat": 43.6307201,
  "lon": -95.5939634,
  "address": "1322 Oxford Street",
  "city": "Worthington",
  "state": "MN"
 },
 {
  "id": 1345443284,
  "name": "Burger King",
  "lat": 43.6041068,
  "lon": -96.710803,
  "address": "5200 North Cliff Avenue",
  "city": "Sioux Falls",
  "state": "SD"
 },
 {
  "id": 1351835949,
  "name": "Burger King",
  "lat": 42.8675702,
  "lon": -78.6975172,
  "address": "1459 French Road",
  "city": "Depew",
  "state": "NY"
 },
 {
  "id": 1353079806,
  "name": "Burger King",
  "lat": 41.2087301,
  "lon": -96.6221478,
  "address": "354 North Chestnut Street",
  "city": "Wahoo",
  "state": "NE"
 },
 {
  "id": 1427521090,
  "name": "Burger King",
  "lat": 40.7499023,
  "lon": -73.9831807,
  "address": "",
  "city": "",
  "state": ""
 },
 {
  "id": 1447431442,
  "name": "Burger King",
  "lat": 41.2381779,
  "lon": -80.7449308,
  "address": "",
  "city": "",
  "state": ""
 },
 {
  "id": 1453690513,
  "name": "Burger King",
  "lat": 40.9413412,
  "lon": -87.2264018,
  "address": "9468 West State Road 114",
  "city": "Renssalaer",
  "state": "IN"
 },
 {
  "id": 1460794985,
  "name": "Burger King",
  "lat": 35.0578842,
  "lon": -106.63561,
  "address": "2501 Mulberry Street Southeast",
  "city": "Albuquerque",
  "state": "NM"
 },
 {
  "id": 1474999167,
  "name": "Burger King",
  "lat": 33.9883918,
  "lon": -118.3304291,
  "address": "5850 Crenshaw Boulevard",
  "city": "Los Angeles",
  "state": "CA"
 },
 {
  "id": 1475231747,
  "name": "Burger King",
  "lat": 30.8117525,
  "lon": -97.6114509,
  "address": "11710 North Interstate 35",
  "city": "Jarrell",
  "state": "TX"
 },
 {
  "id": 1475452886,
  "name": "Burger King",
  "lat": 18.4129335,
  "lon": -66.0692286,
  "address": "",
  "city": "",
  "state": ""
 },
 {
  "id": 1478293214,
  "name": "Burger King",
  "lat": 31.5304464,
  "lon": -97.1886648,
  "address": "1210 North Valley Mills Drive",
  "city": "Waco",
  "state": "TX"
 },
 {
  "id": 1488271073,
  "name": "Burger King",
  "lat": 33.9415325,
  "lon": -117.4544386,
  "address": "5790 Van Buren Boulevard",
  "city": "Riverside",
  "state": "CA"
 },
 {
  "id": 1539078246,
  "name": "Burger King",
  "lat": 44.8831487,
  "lon": -88.138771,
  "address": "343 East Highland Drive",
  "city": "Oconto Falls",
  "state": "WI"
 },
 {
  "id": 1539143610,
  "name": "Burger King",
  "lat": 40.6003851,
  "lon": -98.3928513,
  "address": "",
  "city": "",
  "state": ""
 },
 {
  "id": 1552739108,
  "name": "Burger King",
  "lat": 40.6594398,
  "lon": -75.0747993,
  "address": "975 NJ 173",
  "city": "Bloomsbury",
  "state": "NJ"
 },
 {
  "id": 1557243959,
  "name": "Burger King",
  "lat": 42.1573877,
  "lon": -78.7479022,
  "address": "",
  "city": "",
  "state": ""
 },
 {
  "id": 1558995288,
  "name": "Burger King",
  "lat": 40.8271009,
  "lon": -97.5963146,
  "address": "",
  "city": "York",
  "state": "NE"
 },
 {
  "id": 1570396348,
  "name": "Burger King",
  "lat": 28.5532642,
  "lon": -80.8436144,
  "address": "3293 Columbia Boulevard",
  "city": "",
  "state": ""
 },
 {
  "id": 1573466990,
  "name": "Burger King",
  "lat": 33.7715555,
  "lon": -84.3744445,
  "address": "386 North Avenue Northeast",
  "city": "Atlanta",
  "state": "GA"
 },
 {
  "id": 1576882478,
  "name": "Burger King",
  "lat": 38.7389444,
  "lon": -82.9722393,
  "address": "",
  "city": "",
  "state": ""
 },
 {
  "id": 1581901951,
  "name": "Burger King",
  "lat": 37.7745988,
  "lon": -122.228694,
  "address": "",
  "city": "",
  "state": ""
 },
 {
  "id": 1600669024,
  "name": "Burger King",
  "lat": 30.1231695,
  "lon": -95.405865,
  "address": "2331 Rayford Road",
  "city": "Spring",
  "state": "TX"
 },
 {
  "id": 1603095830,
  "name": "Burger King",
  "lat": 34.7085599,
  "lon": -97.2422056,
  "address": "1601 Airline Road",
  "city": "Pauls Valley",
  "state": "OK"
 },
 {
  "id": 1608400297,
  "name": "Burger King",
  "lat": 37.3027342,
  "lon": -89.5750163,
  "address": "495 South Mount Auburn Road",
  "city": "Cape Girardeau",
  "state": "MO"
 },
 {
  "id": 1609489329,
  "name": "Burger King",
  "lat": 37.31351,
  "lon": -89.5517256,
  "address": "2346 Broadway",
  "city": "Cape Girardeau",
  "state": "MO"
 },
 {
  "id": 1615984667,
  "name": "Burger King",
  "lat": 32.4696672,
  "lon": -94.0563274,
  "address": "825 Spur 156",
  "city": "Waskom",
  "state": "TX"
 },
 {
  "id": 1618351691,
  "name": "Burger King",
  "lat": 38.0212851,
  "lon": -122.261515,
  "address": "844 Willow Avenue",
  "city": "Hercules",
  "state": "CA"
 },
 {
  "id": 1633493033,
  "name": "Burger King",
  "lat": 28.9957267,
  "lon": -81.3031799,
  "address": "1850 South Woodland Boulevard",
  "city": "De Land",
  "state": "FL"
 },
 {
  "id": 1646946100,
  "name": "Burger King",
  "lat": 41.9207589,
  "lon": -72.6714592,
  "address": "84 Ella Grasso Turnpike",
  "city": "Windsor Locks",
  "state": "CT"
 },
 {
  "id": 1647114689,
  "name": "Burger King",
  "lat": 41.9314159,
  "lon": -72.6061827,
  "address": "172 Bridge Street",
  "city": "East Windsor",
  "state": "CT"
 },
 {
  "id": 1647278794,
  "name": "Burger King",
  "lat": 41.998446,
  "lon": -72.580798,
  "address": "117 Elm Street",
  "city": "Enfield",
  "state": "CT"
 },
 {
  "id": 1655457977,
  "name": "Burger King",
  "lat": 41.6719526,
  "lon": -72.8602533,
  "address": "",
  "city": "",
  "state": ""
 },
 {
  "id": 1668212127,
  "name": "Burger King",
  "lat": 28.6149001,
  "lon": -80.8070697,
  "address": "",
  "city": "",
  "state": ""
 },
 {
  "id": 1668909407,
  "name": "Burger King",
  "lat": 32.4308134,
  "lon": -87.0350936,
  "address": "312 Highland Avenue",
  "city": "Selma",
  "state": "AL"
 },
 {
  "id": 1672967325,
  "name": "Burger King",
  "lat": 39.118265,
  "lon": -94.3781166,
  "address": "16901 East Highway 24",
  "city": "Independence",
  "state": "MO"
 },
 {
  "id": 1686318242,
  "name": "Burger King",
  "lat": 32.5229246,
  "lon": -84.8901734,
  "address": "5901 Miller Road",
  "city": "Columbus",
  "state": "GA"
 },
 {
  "id": 1687586289,
  "name": "Burger King",
  "lat": 36.3060881,
  "lon": -82.3414244,
  "address": "1910 South Roan Street",
  "city": "Johnson City",
  "state": "TN"
 },
 {
  "id": 1689033684,
  "name": "Burger King",
  "lat": 32.4845047,
  "lon": -84.9363488,
  "address": "3520 Macon Road",
  "city": "Columbus",
  "state": "GA"
 },
 {
  "id": 1689056812,
  "name": "Burger King",
  "lat": 32.5060144,
  "lon": -84.9403346,
  "address": "3103 Gentian Boulevard",
  "city": "Columbus",
  "state": "GA"
 },
 {
  "id": 1691359002,
  "name": "Burger King",
  "lat": 39.7492459,
  "lon": -122.2029717,
  "address": "901 9th Street",
  "city": "Orland",
  "state": "CA"
 },
 {
  "id": 1692091845,
  "name": "Burger King",
  "lat": 38.6429741,
  "lon": -121.1903401,
  "address": "171 Iron Point Road",
  "city": "Folsom",
  "state": "CA"
 },
 {
  "id": 1694542058,
  "name": "Burger King",
  "lat": 33.9532732,
  "lon": -96.4184222,
  "address": "4301 Hollis Roberts Road",
  "city": "Calera",
  "state": "OK"
 },
 {
  "id": 1695694035,
  "name": "Burger King",
  "lat": 47.4021381,
  "lon": -97.0718528,
  "address": "105 6th Street Southwest",
  "city": "Hillsboro",
  "state": "ND"
 },
 {
  "id": 1697093214,
  "name": "Burger King",
  "lat": 39.6984329,
  "lon": -104.9041034,
  "address": "7150 Leetsdale Drive",
  "city": "Denver",
  "state": "CO"
 },
 {
  "id": 1701650431,
  "name": "Burger King",
  "lat": 18.4660562,
  "lon": -66.11438,
  "address": "",
  "city": "",
  "state": ""
 },
 {
  "id": 1702912200,
  "name": "Burger King",
  "lat": 40.2107094,
  "lon": -74.7966288,
  "address": "344 West Trenton Avenue",
  "city": "Morrisville",
  "state": "PA"
 },
 {
  "id": 1703814476,
  "name": "Burger King",
  "lat": 36.0095808,
  "lon": -79.8385099,
  "address": "3700 South Holden Road",
  "city": "Greensboro",
  "state": "NC"
 },
 {
  "id": 1705952098,
  "name": "Burger King",
  "lat": 18.4417705,
  "lon": -66.0209782,
  "address": "",
  "city": "",
  "state": ""
 },
 {
  "id": 1733457160,
  "name": "Burger King",
  "lat": 47.7246216,
  "lon": -122.3454212,
  "address": "13241 Aurora Avenue North",
  "city": "Seattle",
  "state": "WA"
 },
 {
  "id": 1744531949,
  "name": "Burger King",
  "lat": 34.9843803,
  "lon": -78.9649262,
  "address": "",
  "city": "",
  "state": ""
 },
 {
  "id": 1759017531,
  "name": "Burger King",
  "lat": 34.0034629,
  "lon": -118.282402,
  "address": "4410 South Figueroa Street",
  "city": "Los Angeles",
  "state": "CA"
 },
 {
  "id": 1774647992,
  "name": "Burger King",
  "lat": 34.9230963,
  "lon": -120.4356609,
  "address": "2050 South Broadway",
  "city": "Santa Maria",
  "state": "CA"
 },
 {
  "id": 1781247410,
  "name": "Burger King",
  "lat": 34.9740962,
  "lon": -120.4351559,
  "address": "1864 North Broadway",
  "city": "Santa Maria",
  "state": "CA"
 },
 {
  "id": 1797115064,
  "name": "Burger King",
  "lat": 32.3053906,
  "lon": -95.3012502,
  "address": "4113 South Broadway Avenue",
  "city": "Tyler",
  "state": "TX"
 },
 {
  "id": 1802252598,
  "name": "Burger King",
  "lat": 34.7237444,
  "lon": -86.6269826,
  "address": "308 Jordan Lane",
  "city": "Huntsville",
  "state": "AL"
 },
 {
  "id": 1820644681,
  "name": "Burger King",
  "lat": 35.0435761,
  "lon": -78.9573128,
  "address": "4782 Raeford Road",
  "city": "Fayetteville",
  "state": "NC"
 },
 {
  "id": 1824936692,
  "name": "Burger King",
  "lat": 41.100692,
  "lon": -114.956881,
  "address": "1237 Highway 93 North",
  "city": "Wells",
  "state": "NV"
 },
 {
  "id": 1836578187,
  "name": "Burger King",
  "lat": 36.4174675,
  "lon": -121.320218,
  "address": "2107 H Delarosa SR Street",
  "city": "Soledad",
  "state": "CA"
 },
 {
  "id": 1837059015,
  "name": "Burger King",
  "lat": 39.61733,
  "lon": -86.3545912,
  "address": "440 Town Center Road",
  "city": "Mooresville",
  "state": "IN"
 },
 {
  "id": 1855601732,
  "name": "Burger King",
  "lat": 36.0073599,
  "lon": -84.0241052,
  "address": "6706 Clinton Highway",
  "city": "Knoxville",
  "state": "TN"
 },
 {
  "id": 1864619823,
  "name": "Burger King",
  "lat": 33.583737,
  "lon": -86.7742757,
  "address": "1500 Pinson Valley Parkway",
  "city": "Birmingham",
  "state": "AL"
 },
 {
  "id": 1889243426,
  "name": "Burger King",
  "lat": 40.9656129,
  "lon": -76.8920406,
  "address": "310 North Derr Drive",
  "city": "Lewisburg",
  "state": "PA"
 },
 {
  "id": 1890805583,
  "name": "Burger King",
  "lat": 33.6612329,
  "lon": -114.2408378,
  "address": "1395 West Main",
  "city": "Quartzsite",
  "state": "AZ"
 },
 {
  "id": 1892844993,
  "name": "Burger King",
  "lat": 37.6899246,
  "lon": -120.958404,
  "address": "2101 Sylvan Avenue",
  "city": "Modesto",
  "state": "CA"
 },
 {
  "id": 1899545094,
  "name": "Burger King",
  "lat": 38.5620384,
  "lon": -121.769157,
  "address": "2026 Lyndell Terrace",
  "city": "Davis",
  "state": "CA"
 },
 {
  "id": 1910818401,
  "name": "Burger King",
  "lat": 30.3961175,
  "lon": -87.6836142,
  "address": "910 South McKenzie",
  "city": "Foley",
  "state": "AL"
 },
 {
  "id": 1922797405,
  "name": "Burger King",
  "lat": 44.7814301,
  "lon": -88.5813686,
  "address": "1242 East Green Bay Street",
  "city": "Shawano",
  "state": "WI"
 },
 {
  "id": 1923222360,
  "name": "Burger King",
  "lat": 43.0878657,
  "lon": -85.261561,
  "address": "9463 Belding Road",
  "city": "Belding",
  "state": "MI"
 },
 {
  "id": 1924256873,
  "name": "Burger King",
  "lat": 29.6640258,
  "lon": -95.1220582,
  "address": "7509 Spencer Highway",
  "city": "Pasadena",
  "state": "TX"
 },
 {
  "id": 1927243610,
  "name": "Burger King",
  "lat": 30.3212069,
  "lon": -92.0349951,
  "address": "3915 N.W. Evangeline Thruway",
  "city": "Carencro",
  "state": "LA"
 },
 {
  "id": 1937501267,
  "name": "Burger King",
  "lat": 47.2390493,
  "lon": -88.4536575,
  "address": "56795 6th Street",
  "city": "Calumet Twp",
  "state": "MI"
 },
 {
  "id": 1941043576,
  "name": "Burger King",
  "lat": 31.8523088,
  "lon": -102.393393,
  "address": "1625 North County Road West",
  "city": "Odessa",
  "state": "TX"
 },
 {
  "id": 1953078671,
  "name": "Burger King",
  "lat": 40.8091315,
  "lon": -74.0018022,
  "address": "9105 Bergenline Avenue",
  "city": "North Bergen",
  "state": "NJ"
 },
 {
  "id": 1969458914,
  "name": "Burger King",
  "lat": 29.5589322,
  "lon": -95.6909529,
  "address": "1750 Crabb River Road",
  "city": "Richmond",
  "state": "TX"
 },
 {
  "id": 1975617300,
  "name": "Burger King",
  "lat": 29.7065501,
  "lon": -95.4059359,
  "address": "2116 West Holcombe Boulevard",
  "city": "Houston",
  "state": "TX"
 },
 {
  "id": 1983304045,
  "name": "Burger King",
  "lat": 18.4724846,
  "lon": -66.935322,
  "address": "",
  "city": "",
  "state": ""
 },
 {
  "id": 2021860424,
  "name": "Burger King",
  "lat": 36.2842759,
  "lon": -115.2873226,
  "address": "6780 North Durango Drive",
  "city": "Las Vegas",
  "state": "NV"
 },
 {
  "id": 2024112241,
  "name": "Burger King",
  "lat": 38.6958026,
  "lon": -77.1449397,
  "address": "",
  "city": "Fort Belvoir",
  "state": "VA"
 },
 {
  "id": 2033222934,
  "name": "Burger King",
  "lat": 32.9903417,
  "lon": -80.101093,
  "address": "102 College Park Road",
  "city": "Ladson",
  "state": "SC"
 },
 {
  "id": 2045033337,
  "name": "Burger King",
  "lat": 39.6301826,
  "lon": -78.7462771,
  "address": "1290 West Industrial Boulevard",
  "city": "Cumberland",
  "state": "MD"
 },
 {
  "id": 2049698400,
  "name": "Burger King",
  "lat": 36.1080409,
  "lon": -86.7433103,
  "address": "2950 Nolensville Pike",
  "city": "Nashville",
  "state": "TN"
 },
 {
  "id": 2050790106,
  "name": "Burger King",
  "lat": 43.612909,
  "lon": -84.210938,
  "address": "2029 South Saginaw Road",
  "city": "Midland",
  "state": "MI"
 },
 {
  "id": 2052182693,
  "name": "Burger King",
  "lat": 42.7836427,
  "lon": -86.0789458,
  "address": "651 East 16th Street",
  "city": "Holland",
  "state": "MI"
 },
 {
  "id": 2053854986,
  "name": "Burger King",
  "lat": 34.0990215,
  "lon": -117.8720484,
  "address": "1070 North Grand Avenue",
  "city": "Covina",
  "state": "CA"
 },
 {
  "id": 2060506016,
  "name": "Burger King",
  "lat": 42.0308934,
  "lon": -80.2554256,
  "address": "7517 West Ridge Road",
  "city": "Fairview",
  "state": "PA"
 },
 {
  "id": 2061708215,
  "name": "Burger King",
  "lat": 42.0502123,
  "lon": -80.0831446,
  "address": "7800 Peach Street",
  "city": "Erie",
  "state": "PA"
 },
 {
  "id": 2065746857,
  "name": "Burger King",
  "lat": 42.1070127,
  "lon": -70.7611994,
  "address": "235 Church Street",
  "city": "Pembroke",
  "state": "MA"
 },
 {
  "id": 2077364016,
  "name": "Burger King",
  "lat": 36.4930236,
  "lon": -79.7434929,
  "address": "221 West Kings Highway",
  "city": "Eden",
  "state": "NC"
 },
 {
  "id": 2104895252,
  "name": "Burger King",
  "lat": 42.0886972,
  "lon": -80.1375568,
  "address": "2872 West 26th Street",
  "city": "Erie",
  "state": "PA"
 },
 {
  "id": 2119341101,
  "name": "Burger King",
  "lat": 41.4430379,
  "lon": -81.7034048,
  "address": "4123 Pearl Road",
  "city": "Cleveland",
  "state": "OH"
 },
 {
  "id": 2120426554,
  "name": "Burger King",
  "lat": 38.5895581,
  "lon": -121.5511375,
  "address": "120;100 Ikea Court",
  "city": "West Sacramento",
  "state": "CA"
 },
 {
  "id": 2121514619,
  "name": "Burger King",
  "lat": 39.041953,
  "lon": -96.8304257,
  "address": "1802 North Washington Street",
  "city": "Junction City",
  "state": "KS"
 },
 {
  "id": 2126822483,
  "name": "Burger King",
  "lat": 35.7550554,
  "lon": -109.626238,
  "address": "32942 Highway 191",
  "city": "Ganado",
  "state": "AZ"
 },
 {
  "id": 2133756379,
  "name": "Burger King",
  "lat": 40.7985316,
  "lon": -89.6321314,
  "address": "9109 North Allen Road",
  "city": "Peoria",
  "state": "IL"
 },
 {
  "id": 2148259151,
  "name": "Burger King",
  "lat": 38.727225,
  "lon": -88.0946558,
  "address": "401 South West Street",
  "city": "Olney",
  "state": "IL"
 },
 {
  "id": 2161793481,
  "name": "Burger King",
  "lat": 34.9737731,
  "lon": -110.090101,
  "address": "1851 Highway 77",
  "city": "Holbrook",
  "state": "AZ"
 },
 {
  "id": 2169055750,
  "name": "Burger King",
  "lat": 31.7281094,
  "lon": -96.1827494,
  "address": "299 Interstate 45",
  "city": "Fairfield",
  "state": "TX"
 },
 {
  "id": 2171778687,
  "name": "Burger King",
  "lat": 41.2177123,
  "lon": -73.2136247,
  "address": "4196 Main Street",
  "city": "Bridgeport",
  "state": "CT"
 },
 {
  "id": 2222765085,
  "name": "Burger King",
  "lat": 38.8351323,
  "lon": -77.4315146,
  "address": "5906 Old Centreville Road",
  "city": "Centreville",
  "state": "VA"
 },
 {
  "id": 2244990360,
  "name": "Burger King",
  "lat": 44.4347011,
  "lon": -83.3305162,
  "address": "5325 North US 23",
  "city": "Oscoda",
  "state": "MI"
 },
 {
  "id": 2249697426,
  "name": "Burger King",
  "lat": 45.1115377,
  "lon": -95.0423235,
  "address": "1201 1st Street South",
  "city": "Willmar",
  "state": "MN"
 },
 {
  "id": 2253307413,
  "name": "Burger King",
  "lat": 38.3310403,
  "lon": -122.7147275,
  "address": "8510 Gravenstein Highway",
  "city": "Cotati",
  "state": "CA"
 },
 {
  "id": 2265374214,
  "name": "Burger King",
  "lat": 28.4721524,
  "lon": -80.7673269,
  "address": "6305 North Cocoa Boulevard",
  "city": "Cocoa",
  "state": "FL"
 },
 {
  "id": 2277863717,
  "name": "Burger King",
  "lat": 36.7084082,
  "lon": -119.699689,
  "address": "",
  "city": "",
  "state": ""
 },
 {
  "id": 2281730601,
  "name": "Burger King",
  "lat": 40.2710474,
  "lon": -96.7471268,
  "address": "501 North 6th Street",
  "city": "Beatrice",
  "state": "NE"
 },
 {
  "id": 2293162806,
  "name": "Burger King",
  "lat": 37.0547581,
  "lon": -121.0156106,
  "address": "28991 West Gonzaga road",
  "city": "Santa Nella",
  "state": "CA"
 },
 {
  "id": 2294940817,
  "name": "Burger King",
  "lat": 37.7562127,
  "lon": -87.1507982,
  "address": "2944 West Parrish Avenue",
  "city": "Owensboro",
  "state": "KY"
 },
 {
  "id": 2294954204,
  "name": "Burger King",
  "lat": 28.2310021,
  "lon": -80.7206441,
  "address": "7299 George T Edwards Drive",
  "city": "Melbourne",
  "state": "FL"
 },
 {
  "id": 2296017072,
  "name": "Burger King",
  "lat": 42.3904659,
  "lon": -71.1504512,
  "address": "679 Concord Avenue",
  "city": "Cambridge",
  "state": "MA"
 },
 {
  "id": 2296633466,
  "name": "Burger King",
  "lat": 39.3795796,
  "lon": -104.862718,
  "address": "880 Kinner Street",
  "city": "Castle Rock",
  "state": "CO"
 },
 {
  "id": 2302950322,
  "name": "Burger King",
  "lat": 41.6807493,
  "lon": -86.1893845,
  "address": "530 West McKinley Avenue",
  "city": "Mishawaka",
  "state": "IN"
 },
 {
  "id": 2305831264,
  "name": "Burger King",
  "lat": 39.1134111,
  "lon": -76.9322297,
  "address": "15703 Columbia Pike",
  "city": "Burtonsville",
  "state": "MD"
 },
 {
  "id": 2334480057,
  "name": "Burger King",
  "lat": 40.7398887,
  "lon": -111.9462246,
  "address": "1953 West California Avenue",
  "city": "Salt Lake City",
  "state": "UT"
 },
 {
  "id": 2338822243,
  "name": "Burger King",
  "lat": 37.7535222,
  "lon": -100.025062,
  "address": "808 West Wyatt Earp Boulevard",
  "city": "Dodge City",
  "state": "KS"
 },
 {
  "id": 2342386205,
  "name": "Burger King",
  "lat": 29.9562476,
  "lon": -90.1196292,
  "address": "2423 South Carrollton Avenue",
  "city": "New Orleans",
  "state": "LA"
 },
 {
  "id": 2343229994,
  "name": "Burger King",
  "lat": 41.5909822,
  "lon": -73.1072147,
  "address": "1258;1278 Main Street;Main Street West",
  "city": "Watertown",
  "state": "CT"
 },
 {
  "id": 2348139004,
  "name": "Burger King",
  "lat": 31.867091,
  "lon": -81.6104045,
  "address": "976 William H Wilson Avenue",
  "city": "Fort Stewart",
  "state": "GA"
 },
 {
  "id": 2349011905,
  "name": "Burger King",
  "lat": 42.143908,
  "lon": -77.0595507,
  "address": "122 Dennison Parkway East",
  "city": "Corning",
  "state": "NY"
 },
 {
  "id": 2351626495,
  "name": "Burger King",
  "lat": 40.8399048,
  "lon": -79.9189422,
  "address": "142 Pittsburgh Road",
  "city": "Butler",
  "state": "PA"
 },
 {
  "id": 2351733196,
  "name": "Burger King",
  "lat": 47.0447217,
  "lon": -122.9408452,
  "address": "400 Cooper Point Road",
  "city": "Olympia",
  "state": "WA"
 },
 {
  "id": 2355215529,
  "name": "Burger King",
  "lat": 42.5032655,
  "lon": -83.1965529,
  "address": "3656 12 Mile Road",
  "city": "Berkley",
  "state": "MI"
 },
 {
  "id": 2365836065,
  "name": "Burger King",
  "lat": 30.1362654,
  "lon": -96.2561616,
  "address": "9011 Highway 290 East",
  "city": "Chappell Hill",
  "state": "TX"
 },
 {
  "id": 2368725728,
  "name": "Burger King",
  "lat": 32.8425935,
  "lon": -104.416448,
  "address": "1514 West Main Street",
  "city": "Artesia",
  "state": "NM"
 },
 {
  "id": 2379878614,
  "name": "Burger King",
  "lat": 39.8399436,
  "lon": -84.627717,
  "address": "",
  "city": "",
  "state": ""
 },
 {
  "id": 2383166064,
  "name": "Burger King",
  "lat": 42.9381619,
  "lon": -88.8554953,
  "address": "1285 Madison Avenue",
  "city": "Fort Atkinson",
  "state": "WI"
 },
 {
  "id": 2387774676,
  "name": "Burger King",
  "lat": 34.5150803,
  "lon": -87.7178045,
  "address": "15455 Highway 43",
  "city": "Russellville",
  "state": "AL"
 },
 {
  "id": 2394661178,
  "name": "Burger King",
  "lat": 37.7455949,
  "lon": -122.4202183,
  "address": "1690 Valencia Street",
  "city": "San Francisco",
  "state": "CA"
 },
 {
  "id": 2399878689,
  "name": "Burger King",
  "lat": 41.2372429,
  "lon": -85.8171145,
  "address": "2920 Frontage Road",
  "city": "Warsaw",
  "state": "IN"
 },
 {
  "id": 2405262353,
  "name": "Burger King",
  "lat": 42.91226,
  "lon": -85.6521489,
  "address": "",
  "city": "",
  "state": ""
 },
 {
  "id": 2406083882,
  "name": "Burger King",
  "lat": 42.1306801,
  "lon": -72.6252703,
  "address": "983 Riverdale Street",
  "city": "West Springfield",
  "state": "MA"
 },
 {
  "id": 2411615774,
  "name": "Burger King",
  "lat": 42.5092295,
  "lon": -96.4162754,
  "address": "1724 Hamilton Boulevard",
  "city": "Sioux City",
  "state": "IA"
 },
 {
  "id": 2420395954,
  "name": "Burger King",
  "lat": 46.4625196,
  "lon": -84.3785956,
  "address": "4441 I 75 Business Spur",
  "city": "Sault Sainte Marie",
  "state": "MI"
 },
 {
  "id": 2425229731,
  "name": "Burger King",
  "lat": 39.6782755,
  "lon": -104.987127,
  "address": "2110 South Broadway Street",
  "city": "Denver",
  "state": "CO"
 },
 {
  "id": 2425718996,
  "name": "Burger King",
  "lat": 46.2864913,
  "lon": -122.9008626,
  "address": "1209 Mount Saint Helens Way",
  "city": "Castle Rock",
  "state": "WA"
 },
 {
  "id": 2441039915,
  "name": "Burger King",
  "lat": 43.5144356,
  "lon": -96.7916689,
  "address": "5301 West 41st Street",
  "city": "Sioux Falls",
  "state": "SD"
 },
 {
  "id": 2444640232,
  "name": "Burger King",
  "lat": 26.8956333,
  "lon": -82.0089952,
  "address": "26500 Jones Loop Road",
  "city": "Punta Gorda",
  "state": "FL"
 },
 {
  "id": 2447712123,
  "name": "Burger King",
  "lat": 43.5636549,
  "lon": -96.7319418,
  "address": "401 West Russell Street",
  "city": "Sioux Falls",
  "state": "SD"
 },
 {
  "id": 2458648426,
  "name": "Burger King",
  "lat": 28.4268853,
  "lon": -81.3009555,
  "address": "1 Jeff Fuqua Boulevard",
  "city": "Orlando",
  "state": "FL"
 },
 {
  "id": 2459137324,
  "name": "Burger King",
  "lat": 43.5000104,
  "lon": -96.7080867,
  "address": "1221 East 57th Street",
  "city": "Sioux Falls",
  "state": "SD"
 },
 {
  "id": 2459401327,
  "name": "Burger King",
  "lat": 35.9186205,
  "lon": -80.0578882,
  "address": "1400 National Highway",
  "city": "Thomasville",
  "state": "NC"
 },
 {
  "id": 2460485983,
  "name": "Burger King",
  "lat": 41.5167842,
  "lon": -81.6514576,
  "address": "1549 East 55 Street",
  "city": "Cleveland",
  "state": "OH"
 },
 {
  "id": 2479251356,
  "name": "Burger King",
  "lat": 29.4431628,
  "lon": -98.3614667,
  "address": "6170 I.H. 10 East",
  "city": "San Antonio",
  "state": "TX"
 },
 {
  "id": 2483018366,
  "name": "Burger King",
  "lat": 42.3746249,
  "lon": -76.8704617,
  "address": "211 Franklin Street",
  "city": "Watkins Glen",
  "state": "NY"
 },
 {
  "id": 2488021378,
  "name": "Burger King",
  "lat": 42.7540636,
  "lon": -88.2081561,
  "address": "2723 Beck Drive",
  "city": "Waterford",
  "state": "WI"
 },
 {
  "id": 2495049961,
  "name": "Burger King",
  "lat": 27.961014,
  "lon": -82.758945,
  "address": "1888 Gulf to Bay Boulevard",
  "city": "Clearwater",
  "state": "FL"
 },
 {
  "id": 2498006346,
  "name": "Burger King",
  "lat": 46.812022,
  "lon": -119.172761,
  "address": "150 East Columbia Street",
  "city": "Othello",
  "state": "WA"
 },
 {
  "id": 2503331102,
  "name": "Burger King",
  "lat": 34.5472815,
  "lon": -82.6317317,
  "address": "2009 East Greenville Street",
  "city": "Anderson",
  "state": "SC"
 },
 {
  "id": 2505438484,
  "name": "Burger King",
  "lat": 41.031953,
  "lon": -81.9076429,
  "address": "8834 Lake Road",
  "city": "Seville",
  "state": "OH"
 },
 {
  "id": 2508336008,
  "name": "Burger King",
  "lat": 38.0082878,
  "lon": -84.2142509,
  "address": "1 Shoppers Drive",
  "city": "Winchester",
  "state": "KY"
 },
 {
  "id": 2511051076,
  "name": "Burger King",
  "lat": 37.5925755,
  "lon": -120.9382446,
  "address": "2732 Mitchell Road",
  "city": "Ceres",
  "state": "CA"
 },
 {
  "id": 2524946193,
  "name": "Burger King",
  "lat": 39.7084015,
  "lon": -104.875675,
  "address": "9690 East Alameda Avenue",
  "city": "Denver",
  "state": "CO"
 },
 {
  "id": 2524946198,
  "name": "Burger King",
  "lat": 39.6969512,
  "lon": -104.84687,
  "address": "12119 East Mississippi Avenue",
  "city": "Aurora",
  "state": "CO"
 },
 {
  "id": 2526234780,
  "name": "Burger King",
  "lat": 39.7264194,
  "lon": -104.847716,
  "address": "625 Peoria Street",
  "city": "Aurora",
  "state": "CO"
 },
 {
  "id": 2528192924,
  "name": "Burger King",
  "lat": 41.4817025,
  "lon": -72.8099969,
  "address": "888 North Colony Road",
  "city": "Wallingford",
  "state": "CT"
 },
 {
  "id": 2537369936,
  "name": "Burger King",
  "lat": 40.7982355,
  "lon": -77.8612614,
  "address": "",
  "city": "University Park",
  "state": "PA"
 },
 {
  "id": 2546321361,
  "name": "Burger King",
  "lat": 35.0875684,
  "lon": -106.568182,
  "address": "7101 Lomas North East",
  "city": "Albuquerque",
  "state": "NM"
 },
 {
  "id": 2548082818,
  "name": "Burger King",
  "lat": 38.678118,
  "lon": -121.2653528,
  "address": "8034 Greenback Lane",
  "city": "Citrus Heights",
  "state": "CA"
 },
 {
  "id": 2551989373,
  "name": "Burger King",
  "lat": 38.6772078,
  "lon": -121.7966527,
  "address": "251 West Main Street",
  "city": "Woodland",
  "state": "CA"
 },
 {
  "id": 2560623832,
  "name": "Burger King",
  "lat": 41.3155656,
  "lon": -72.9382453,
  "address": "169 Whalley Avenue",
  "city": "New Haven",
  "state": "CT"
 },
 {
  "id": 2566867790,
  "name": "Burger King",
  "lat": 42.5684899,
  "lon": -114.4598202,
  "address": "360 Blue Lake Boulevard North",
  "city": "Twin Falls",
  "state": "ID"
 },
 {
  "id": 2575412858,
  "name": "Burger King",
  "lat": 32.6187996,
  "lon": -83.6472727,
  "address": "2010 Watson Boulevard",
  "city": "Warner Robins",
  "state": "GA"
 },
 {
  "id": 2578713943,
  "name": "Burger King",
  "lat": 42.4965554,
  "lon": -90.720196,
  "address": "1350 John F. Kennedy Road",
  "city": "Dubuque",
  "state": "IA"
 },
 {
  "id": 2584518387,
  "name": "Burger King",
  "lat": 42.2483911,
  "lon": -71.7615243,
  "address": "865 Grafton Street",
  "city": "Worcester",
  "state": "MA"
 },
 {
  "id": 2599308557,
  "name": "Burger King",
  "lat": 33.4519096,
  "lon": -86.9784238,
  "address": "3016 Allison-Bonnett Memorial Drive",
  "city": "Hueytown",
  "state": "AL"
 },
 {
  "id": 2605312627,
  "name": "Burger King",
  "lat": 40.6920191,
  "lon": -73.9883569,
  "address": "417-21 Fulton Street",
  "city": "Brooklyn",
  "state": "NY"
 },
 {
  "id": 2620835182,
  "name": "Burger King",
  "lat": 31.3248445,
  "lon": -89.3739401,
  "address": "",
  "city": "",
  "state": ""
 },
 {
  "id": 2625100209,
  "name": "Burger King",
  "lat": 35.1311829,
  "lon": -106.517151,
  "address": "10901 Montgomery Boulevard, North East",
  "city": "Albuquerque",
  "state": "NM"
 },
 {
  "id": 2631894874,
  "name": "Burger King",
  "lat": 28.236166,
  "lon": -81.651391,
  "address": "44149 Highway 27",
  "city": "Davenport",
  "state": "FL"
 },
 {
  "id": 2639338789,
  "name": "Burger King",
  "lat": 38.8923144,
  "lon": -79.8457905,
  "address": "729 Beverly Pike",
  "city": "Elkins",
  "state": "WV"
 },
 {
  "id": 2645764925,
  "name": "Burger King",
  "lat": 42.6397385,
  "lon": -83.3540877,
  "address": "3402 Elizabeth Lake Road",
  "city": "Waterford",
  "state": "MI"
 },
 {
  "id": 2650767927,
  "name": "Burger King",
  "lat": 30.7519935,
  "lon": -85.5514739,
  "address": "1698 Main Street",
  "city": "Chipley",
  "state": "FL"
 },
 {
  "id": 2651172808,
  "name": "Burger King",
  "lat": 36.1362519,
  "lon": -120.361005,
  "address": "156 East Polk Street",
  "city": "Coalinga",
  "state": "CA"
 },
 {
  "id": 2652165396,
  "name": "Burger King",
  "lat": 42.7901822,
  "lon": -83.7419078,
  "address": "19055 Silver Parkway",
  "city": "Fenton",
  "state": "MI"
 },
 {
  "id": 2669168030,
  "name": "Burger King",
  "lat": 18.0435844,
  "lon": -65.864758,
  "address": "",
  "city": "Yabucoa",
  "state": ""
 },
 {
  "id": 2678431907,
  "name": "Burger King",
  "lat": 37.835725,
  "lon": -94.3271805,
  "address": "2200 East Austin",
  "city": "Nevada",
  "state": "MO"
 },
 {
  "id": 2678649771,
  "name": "Burger King",
  "lat": 29.6799394,
  "lon": -95.4023379,
  "address": "1620 South Loop West",
  "city": "Houston",
  "state": "TX"
 },
 {
  "id": 2688731767,
  "name": "Burger King",
  "lat": 37.2909037,
  "lon": -80.0717177,
  "address": "815 West Main Street",
  "city": "Salem",
  "state": "VA"
 },
 {
  "id": 2689028206,
  "name": "Burger King",
  "lat": 42.3953861,
  "lon": -86.2695168,
  "address": "752 Lagrange",
  "city": "South Haven",
  "state": "MI"
 },
 {
  "id": 2689272985,
  "name": "Burger King",
  "lat": 39.3090161,
  "lon": -80.2750723,
  "address": "170 Barnett Run Road",
  "city": "Bridgeport",
  "state": "WV"
 },
 {
  "id": 2690723306,
  "name": "Burger King",
  "lat": 39.8969191,
  "lon": -80.1598437,
  "address": "130 East Roy Furman Highway",
  "city": "Waynesburg",
  "state": "PA"
 },
 {
  "id": 2696890783,
  "name": "Burger King",
  "lat": 27.892042,
  "lon": -82.729638,
  "address": "13238 66th Street North",
  "city": "Seminole",
  "state": "FL"
 },
 {
  "id": 2699056030,
  "name": "Burger King",
  "lat": 34.6238477,
  "lon": -98.4325924,
  "address": "2635 Northwest Cache Road",
  "city": "Lawton",
  "state": "OK"
 },
 {
  "id": 2699541605,
  "name": "Burger King",
  "lat": 32.7519848,
  "lon": -117.2037307,
  "address": "3747 Rosecrans Street",
  "city": "San Diego",
  "state": "CA"
 },
 {
  "id": 2701512153,
  "name": "Burger King",
  "lat": 46.3084784,
  "lon": -119.9778424,
  "address": "3201 Piccard Place",
  "city": "Sunnyside",
  "state": "WA"
 },
 {
  "id": 2707715747,
  "name": "Burger King",
  "lat": 42.8508216,
  "lon": -106.270018,
  "address": "81 Southeast Wyoming Boulevard",
  "city": "Casper",
  "state": "WY"
 },
 {
  "id": 2711064524,
  "name": "Burger King",
  "lat": 33.8483058,
  "lon": -79.0669559,
  "address": "1646 Church Street",
  "city": "Conway",
  "state": "SC"
 },
 {
  "id": 2713444016,
  "name": "Burger King",
  "lat": 29.5106517,
  "lon": -98.3903594,
  "address": "5013 Walzem Road",
  "city": "Windcrest",
  "state": "TX"
 },
 {
  "id": 2716458662,
  "name": "Burger King",
  "lat": 40.9321378,
  "lon": -74.0259185,
  "address": "684 River Road",
  "city": "New Milford",
  "state": "NJ"
 },
 {
  "id": 2732305267,
  "name": "Burger King",
  "lat": 33.6820997,
  "lon": -78.8945431,
  "address": "501 South King's Highway",
  "city": "Myrtle Beach",
  "state": "SC"
 },
 {
  "id": 2733171704,
  "name": "Burger King",
  "lat": 37.1595488,
  "lon": -93.2959251,
  "address": "",
  "city": "",
  "state": ""
 },
 {
  "id": 2738959530,
  "name": "Burger King",
  "lat": 37.2359574,
  "lon": -93.2606064,
  "address": "2138 North Glenstone Avenue",
  "city": "Springfield",
  "state": "MO"
 },
 {
  "id": 2750884329,
  "name": "Burger King",
  "lat": 41.111361,
  "lon": -111.984045,
  "address": "",
  "city": "Hill Air Force Base",
  "state": "UT"
 },
 {
  "id": 2763174441,
  "name": "Burger King",
  "lat": 34.0304367,
  "lon": -81.0426645,
  "address": "3403 North Main Street",
  "city": "Columbia",
  "state": "SC"
 },
 {
  "id": 2765918076,
  "name": "Burger King",
  "lat": 38.7714903,
  "lon": -93.736187,
  "address": "215 East Young",
  "city": "Warrensburg",
  "state": "MO"
 },
 {
  "id": 2770896906,
  "name": "Burger King",
  "lat": 37.8693674,
  "lon": -87.5704816,
  "address": "2230 US Highway 41",
  "city": "Henderson",
  "state": "KY"
 },
 {
  "id": 2782625736,
  "name": "Burger King",
  "lat": 36.0996068,
  "lon": -115.1007429,
  "address": "3401 East Tropicana Avenue",
  "city": "Las Vegas",
  "state": "NV"
 },
 {
  "id": 2791744224,
  "name": "Burger King",
  "lat": 40.858233,
  "lon": -80.2897115,
  "address": "627 Lawrence Avenue",
  "city": "Ellwood City",
  "state": "PA"
 },
 {
  "id": 2798847510,
  "name": "Burger King",
  "lat": 32.4054504,
  "lon": -93.8017562,
  "address": "9132 Mansfield Road",
  "city": "Shreveport",
  "state": "LA"
 },
 {
  "id": 2800063138,
  "name": "Burger King",
  "lat": 39.6526585,
  "lon": -104.928883,
  "address": "4996 East Hampden Avenue",
  "city": "",
  "state": ""
 },
 {
  "id": 2800261840,
  "name": "Burger King",
  "lat": 18.4699839,
  "lon": -66.7223467,
  "address": "",
  "city": "",
  "state": ""
 },
 {
  "id": 2800387698,
  "name": "Burger King",
  "lat": 40.6562878,
  "lon": -80.237344,
  "address": "1690 Beaver Road",
  "city": "Baden",
  "state": "PA"
 },
 {
  "id": 2805270679,
  "name": "Burger King",
  "lat": 32.8258715,
  "lon": -96.8729082,
  "address": "8383 North Stemmons Freeway",
  "city": "Dallas",
  "state": "TX"
 },
 {
  "id": 2818133612,
  "name": "Burger King",
  "lat": 34.154626,
  "lon": -78.8598937,
  "address": "801 Highway 701 Bypass",
  "city": "Tabor City",
  "state": "NC"
 },
 {
  "id": 2819633284,
  "name": "Burger King",
  "lat": 43.0875164,
  "lon": -88.0658207,
  "address": "3880 North 124th Street",
  "city": "Wauwatosa",
  "state": "WI"
 },
 {
  "id": 2826254094,
  "name": "Burger King",
  "lat": 41.694779,
  "lon": -85.9650893,
  "address": "834 East Beardsley Street",
  "city": "Elkhart",
  "state": "IN"
 },
 {
  "id": 2828105632,
  "name": "Burger King",
  "lat": 30.305238,
  "lon": -89.8262106,
  "address": "141 Northshore Boulevard",
  "city": "Slidell",
  "state": "LA"
 },
 {
  "id": 2830078967,
  "name": "Burger King",
  "lat": 35.1889874,
  "lon": -84.8806789,
  "address": "1445 25th Street",
  "city": "Cleveland",
  "state": "TN"
 },
 {
  "id": 2838396439,
  "name": "Burger King",
  "lat": 40.700934,
  "lon": -73.9425251,
  "address": "736 Broadway",
  "city": "Brooklyn",
  "state": "NY"
 },
 {
  "id": 2854537124,
  "name": "Burger King",
  "lat": 39.6961962,
  "lon": -104.824148,
  "address": "14090 East Mississippi Avenue",
  "city": "Aurora",
  "state": "CO"
 },
 {
  "id": 2859975657,
  "name": "Burger King",
  "lat": 36.0487293,
  "lon": -79.8349933,
  "address": "3003 West Gate City Boulevard",
  "city": "Greensboro",
  "state": "NC"
 },
 {
  "id": 2861524642,
  "name": "Burger King",
  "lat": 41.4034875,
  "lon": -94.9942997,
  "address": "1309 East 7 Street",
  "city": "Atlantic",
  "state": "IA"
 },
 {
  "id": 2867647373,
  "name": "Burger King",
  "lat": 38.5279073,
  "lon": -76.9821055,
  "address": "6720 Cran Highway",
  "city": "La Plata",
  "state": "MD"
 },
 {
  "id": 2871307805,
  "name": "Burger King",
  "lat": 40.7281307,
  "lon": -73.7470411,
  "address": "217-10 Hillside Avenue",
  "city": "Queens Village",
  "state": "NY"
 },
 {
  "id": 2875412256,
  "name": "Burger King",
  "lat": 34.0713245,
  "lon": -83.9139778,
  "address": "3470 Braselton Highway",
  "city": "Dacula",
  "state": "GA"
 },
 {
  "id": 2879430892,
  "name": "Burger King",
  "lat": 39.6273583,
  "lon": -104.9884121,
  "address": "",
  "city": "",
  "state": ""
 },
 {
  "id": 2883954264,
  "name": "Burger King",
  "lat": 40.0772471,
  "lon": -80.9168711,
  "address": "101 Plaza Drive",
  "city": "Saint Clairsville",
  "state": "OH"
 },
 {
  "id": 2883973300,
  "name": "Burger King",
  "lat": 39.995177,
  "lon": -81.5757612,
  "address": "61688 Southgate Road",
  "city": "Cambridge",
  "state": "OH"
 },
 {
  "id": 2884341827,
  "name": "Burger King",
  "lat": 36.7675911,
  "lon": -90.4164794,
  "address": "1201 Kanell Boulevard",
  "city": "Poplar Bluff",
  "state": "MO"
 },
 {
  "id": 2894700755,
  "name": "Burger King",
  "lat": 34.9891972,
  "lon": -85.210516,
  "address": "6404 Ringgold Road",
  "city": "East Ridge",
  "state": "TN"
 },
 {
  "id": 2898742836,
  "name": "Burger King",
  "lat": 29.5613531,
  "lon": -95.1420692,
  "address": "535 Eldorado Boulevard",
  "city": "Webster",
  "state": "TX"
 },
 {
  "id": 2903719954,
  "name": "Burger King",
  "lat": 27.9957974,
  "lon": -82.4304739,
  "address": "2601 East Hillsborough Avenue",
  "city": "Tampa",
  "state": "FL"
 },
 {
  "id": 2904919355,
  "name": "Burger King",
  "lat": 26.1666669,
  "lon": -98.1882674,
  "address": "2511 South Cage Boulevard",
  "city": "Pharr",
  "state": "TX"
 },
 {
  "id": 2906611002,
  "name": "Burger King",
  "lat": 21.3340385,
  "lon": -157.9239344,
  "address": "300 Rodgers Boulevard",
  "city": "Honolulu",
  "state": "HI"
 },
 {
  "id": 2914313212,
  "name": "Burger King",
  "lat": 41.6883946,
  "lon": -70.3382638,
  "address": "2145 Iyanough Road",
  "city": "West Barnstable",
  "state": "MA"
 },
 {
  "id": 2915928410,
  "name": "Burger King",
  "lat": 44.2372073,
  "lon": -85.4536962,
  "address": "6101 M 115",
  "city": "Cadillac",
  "state": "MI"
 },
 {
  "id": 2919599907,
  "name": "Burger King",
  "lat": 44.681522,
  "lon": -73.4484468,
  "address": "5043 Avenue",
  "city": "Plattsburgh",
  "state": "NY"
 },
 {
  "id": 2919732916,
  "name": "Burger King",
  "lat": 39.7396729,
  "lon": -104.8104248,
  "address": "15290 East Colfax",
  "city": "Aurora",
  "state": "CO"
 },
 {
  "id": 2924610301,
  "name": "Burger King",
  "lat": 33.640635,
  "lon": -84.4445879,
  "address": "6000 North Terminal Parkway",
  "city": "Atlanta",
  "state": "GA"
 },
 {
  "id": 2951625833,
  "name": "Burger King",
  "lat": 36.9748754,
  "lon": -120.072448,
  "address": "1103 Country Club Drive",
  "city": "Madera",
  "state": "CA"
 },
 {
  "id": 2951873131,
  "name": "Burger King",
  "lat": 33.3530833,
  "lon": -84.1208055,
  "address": "4860 Bill Gardner Parkway",
  "city": "Locust Grove",
  "state": "GA"
 },
 {
  "id": 2959967770,
  "name": "Burger King",
  "lat": 35.2153312,
  "lon": -111.5969653,
  "address": "3520 East Route 66",
  "city": "Flagstaff",
  "state": "AZ"
 },
 {
  "id": 2968137406,
  "name": "Burger King",
  "lat": 48.9946044,
  "lon": -122.7340535,
  "address": "1310 H Street",
  "city": "Blaine",
  "state": "WA"
 },
 {
  "id": 2969904552,
  "name": "Burger King",
  "lat": 36.8979553,
  "lon": -76.2041764,
  "address": "2200 Norview Avenue",
  "city": "Norfolk",
  "state": "VA"
 },
 {
  "id": 2972330707,
  "name": "Burger King",
  "lat": 36.8794532,
  "lon": -89.5764053,
  "address": "921 East Malone Avenue",
  "city": "Sikeston",
  "state": "MO"
 },
 {
  "id": 2973560090,
  "name": "Burger King",
  "lat": 35.3781117,
  "lon": -78.5410584,
  "address": "700 East Church Street",
  "city": "Benson",
  "state": "NC"
 },
 {
  "id": 2978026728,
  "name": "Burger King",
  "lat": 33.9146757,
  "lon": -81.1326305,
  "address": "699 Main Street",
  "city": "West Columbia",
  "state": "SC"
 },
 {
  "id": 2978337623,
  "name": "Burger King",
  "lat": 39.8500325,
  "lon": -85.1452035,
  "address": "1598 N State Road 1",
  "city": "",
  "state": ""
 },
 {
  "id": 2979860567,
  "name": "Burger King",
  "lat": 33.7780549,
  "lon": -78.7921823,
  "address": "9650 North King Highway",
  "city": "Myrtle Beach",
  "state": "SC"
 },
 {
  "id": 2980432435,
  "name": "Burger King",
  "lat": 40.28559,
  "lon": -79.5476409,
  "address": "1250 South Main Street",
  "city": "Greensburg",
  "state": "PA"
 },
 {
  "id": 2983792620,
  "name": "Burger King",
  "lat": 38.495744,
  "lon": -121.098357,
  "address": "14813 Jackson Road",
  "city": "Sloughhouse",
  "state": "CA"
 },
 {
  "id": 3003066333,
  "name": "Burger King",
  "lat": 41.3934251,
  "lon": -81.5366767,
  "address": "4 Center Road",
  "city": "Bedford",
  "state": "OH"
 },
 {
  "id": 3005924608,
  "name": "Burger King",
  "lat": 39.7799498,
  "lon": -104.846451,
  "address": "4600 Peoria Street",
  "city": "Denver",
  "state": "CO"
 },
 {
  "id": 3011454588,
  "name": "Burger King",
  "lat": 40.8510289,
  "lon": -115.7444188,
  "address": "2500 Idaho Street",
  "city": "Elko",
  "state": "NV"
 },
 {
  "id": 3013709173,
  "name": "Burger King",
  "lat": 41.3108007,
  "lon": -81.4478682,
  "address": "2532 Aurora Road",
  "city": "Twinsburg",
  "state": "OH"
 },
 {
  "id": 3020853242,
  "name": "Burger King",
  "lat": 35.7095153,
  "lon": -86.9740117,
  "address": "2540 Nashville Highway",
  "city": "Columbia",
  "state": "TN"
 },
 {
  "id": 3022223299,
  "name": "Burger King",
  "lat": 39.445811,
  "lon": -76.813286,
  "address": "1 West Chestnut Hill Lane",
  "city": "Reisterstown",
  "state": "MD"
 },
 {
  "id": 3023182356,
  "name": "Burger King",
  "lat": 33.8929133,
  "lon": -84.7573511,
  "address": "4235 Jimmy Lee Smith Parkway",
  "city": "Hiram",
  "state": "GA"
 },
 {
  "id": 3023508240,
  "name": "Burger King",
  "lat": 36.1410887,
  "lon": -81.1765769,
  "address": "1203 River Road",
  "city": "Wilkesboro",
  "state": "NC"
 },
 {
  "id": 3023957632,
  "name": "Burger King",
  "lat": 34.6221032,
  "lon": -79.0484565,
  "address": "2907 West 5th Street",
  "city": "Lumberton",
  "state": "NC"
 },
 {
  "id": 3033564671,
  "name": "Burger King",
  "lat": 31.8122399,
  "lon": -106.4333198,
  "address": "196 Cassidy Road",
  "city": "Fort Bliss",
  "state": "TX"
 },
 {
  "id": 3050608649,
  "name": "Burger King",
  "lat": 35.5993474,
  "lon": -82.4046391,
  "address": "2333 US-70",
  "city": "Swannanoa",
  "state": "NC"
 },
 {
  "id": 3056472841,
  "name": "Burger King",
  "lat": 42.2662944,
  "lon": -84.6234868,
  "address": "12301 West Michigan Avenue",
  "city": "Parma",
  "state": "MI"
 },
 {
  "id": 3062282240,
  "name": "Burger King",
  "lat": 35.224163,
  "lon": -80.9403811,
  "address": "",
  "city": "Charlotte",
  "state": "NC"
 },
 {
  "id": 3066140956,
  "name": "Burger King",
  "lat": 36.7031977,
  "lon": -77.5436576,
  "address": "100 Market Drive",
  "city": "Emporia",
  "state": "VA"
 },
 {
  "id": 3072746582,
  "name": "Burger King",
  "lat": 43.3092354,
  "lon": -73.6429266,
  "address": "1 Warren Street",
  "city": "Glens Falls",
  "state": "NY"
 },
 {
  "id": 3075917453,
  "name": "Burger King",
  "lat": 37.2733878,
  "lon": -79.8906284,
  "address": "716 Hardy Road",
  "city": "Vinton",
  "state": "VA"
 },
 {
  "id": 3080642488,
  "name": "Burger King",
  "lat": 42.8369064,
  "lon": -84.2184563,
  "address": "2994 Lansing Road",
  "city": "Perry",
  "state": "MI"
 },
 {
  "id": 3097690125,
  "name": "Burger King",
  "lat": 36.9431528,
  "lon": -76.309641,
  "address": "1560 Mall Drive",
  "city": "Norfolk",
  "state": "VA"
 },
 {
  "id": 3113155561,
  "name": "Burger King",
  "lat": 30.3359539,
  "lon": -95.1010743,
  "address": "601 West Southline Street",
  "city": "Cleveland",
  "state": "TX"
 },
 {
  "id": 3115792224,
  "name": "Burger King",
  "lat": 36.7627944,
  "lon": -80.7351713,
  "address": "100 North Main Street",
  "city": "Hillsville",
  "state": "VA"
 },
 {
  "id": 3118018805,
  "name": "Burger King",
  "lat": 40.6378852,
  "lon": -73.8950002,
  "address": "1772 Rockaway Parkway",
  "city": "Brooklyn",
  "state": "NY"
 },
 {
  "id": 3124225886,
  "name": "Burger King",
  "lat": 36.3626079,
  "lon": -77.6718107,
  "address": "10654 Highway 903",
  "city": "Halifax",
  "state": "NC"
 },
 {
  "id": 3128354897,
  "name": "Burger King",
  "lat": 35.5618602,
  "lon": -77.0608608,
  "address": "1429 Carolina Avenue",
  "city": "Washington",
  "state": "NC"
 },
 {
  "id": 3136306506,
  "name": "Burger King",
  "lat": 32.3289602,
  "lon": -90.325247,
  "address": "Broadway",
  "city": "Clinton",
  "state": "MS"
 },
 {
  "id": 3137544340,
  "name": "Burger King",
  "lat": 37.27089,
  "lon": -77.412314,
  "address": "",
  "city": "Colonial Heights",
  "state": "VA"
 },
 {
  "id": 3140881708,
  "name": "Burger King",
  "lat": 36.7201181,
  "lon": -78.1188589,
  "address": "706 East Atlantic Avenue",
  "city": "South Hill",
  "state": "VA"
 },
 {
  "id": 3146562687,
  "name": "Burger King",
  "lat": 36.8598034,
  "lon": -76.2092556,
  "address": "1106 North Military Highway",
  "city": "Norfolk",
  "state": "VA"
 },
 {
  "id": 3159687298,
  "name": "Burger King",
  "lat": 37.9249779,
  "lon": -122.364509,
  "address": "550 Cutting Boulevard",
  "city": "Richmond",
  "state": "CA"
 },
 {
  "id": 3160536222,
  "name": "Burger King",
  "lat": 33.8737612,
  "lon": -79.7605338,
  "address": "135 South Ron McNair Boulevard",
  "city": "Lake City",
  "state": "SC"
 },
 {
  "id": 3163897119,
  "name": "Burger King",
  "lat": 36.080537,
  "lon": -115.146475,
  "address": "5757 Wayne Newton Boulevard",
  "city": "Las Vegas",
  "state": "NV"
 },
 {
  "id": 3166128571,
  "name": "Burger King",
  "lat": 45.9715747,
  "lon": -94.866099,
  "address": "",
  "city": "",
  "state": ""
 },
 {
  "id": 3175146872,
  "name": "Burger King",
  "lat": 40.206376,
  "lon": -79.5660593,
  "address": "724 New Stanton Plaza Road",
  "city": "Hunker",
  "state": "PA"
 },
 {
  "id": 3181980720,
  "name": "Burger King",
  "lat": 36.8567699,
  "lon": -84.8461726,
  "address": "",
  "city": "",
  "state": ""
 },
 {
  "id": 3190496473,
  "name": "Burger King",
  "lat": 35.6605583,
  "lon": -80.4618421,
  "address": "824 East Innes Street",
  "city": "Salisbury",
  "state": "NC"
 },
 {
  "id": 3196444153,
  "name": "Burger King",
  "lat": 38.6614645,
  "lon": -78.491595,
  "address": "1034 US Highway 211 West",
  "city": "Luray",
  "state": "VA"
 },
 {
  "id": 3215027205,
  "name": "Burger King",
  "lat": 34.0350921,
  "lon": -81.0035984,
  "address": "2902 Two Notch Road",
  "city": "Columbia",
  "state": "SC"
 },
 {
  "id": 3236917561,
  "name": "Burger King",
  "lat": 30.549868,
  "lon": -95.500388,
  "address": "6505 FM 1374 Road",
  "city": "New Waverly",
  "state": "TX"
 },
 {
  "id": 3256989785,
  "name": "Burger King",
  "lat": 26.2329888,
  "lon": -80.102533,
  "address": "40 North Federal Highway",
  "city": "Pompano Beach",
  "state": "FL"
 },
 {
  "id": 3257229747,
  "name": "Burger King",
  "lat": 42.9525274,
  "lon": -78.6027055,
  "address": "",
  "city": "",
  "state": ""
 },
 {
  "id": 3267122721,
  "name": "Burger King",
  "lat": 32.4692112,
  "lon": -85.0296934,
  "address": "1135 280 Bypass",
  "city": "Phenix City",
  "state": "AL"
 },
 {
  "id": 3282371061,
  "name": "Burger King",
  "lat": 30.651935,
  "lon": -87.913041,
  "address": "Old Spanish Trail",
  "city": "Daphne",
  "state": ""
 },
 {
  "id": 3295175361,
  "name": "Burger King",
  "lat": 37.6711251,
  "lon": -92.6522304,
  "address": "1077 South Jefferson",
  "city": "Lebanon",
  "state": "MO"
 },
 {
  "id": 3299311997,
  "name": "Burger King",
  "lat": 40.4491454,
  "lon": -84.9787496,
  "address": "1610 North Meridian",
  "city": "Portland",
  "state": "IN"
 },
 {
  "id": 3301681863,
  "name": "Burger King",
  "lat": 37.6729219,
  "lon": -85.9104212,
  "address": "3204 Leitchfield Road",
  "city": "Cecilia",
  "state": "KY"
 },
 {
  "id": 3303306710,
  "name": "Burger King",
  "lat": 35.3171155,
  "lon": -81.1894036,
  "address": "3100 Dallas High Shoals Road",
  "city": "Dallas",
  "state": "NC"
 },
 {
  "id": 3304304561,
  "name": "Burger King",
  "lat": 32.6480719,
  "lon": -96.8577378,
  "address": "2403 West Wheatland Road",
  "city": "Dallas",
  "state": "TX"
 },
 {
  "id": 3310019553,
  "name": "Burger King",
  "lat": 29.9335295,
  "lon": -95.2503123,
  "address": "9410 North Sam Houston Parkway East",
  "city": "Humble",
  "state": "TX"
 },
 {
  "id": 3342421449,
  "name": "Burger King",
  "lat": 32.8925471,
  "lon": -84.3265335,
  "address": "313 North Center Street",
  "city": "Thomaston",
  "state": "GA"
 },
 {
  "id": 3353159852,
  "name": "Burger King",
  "lat": 27.96503,
  "lon": -82.521016,
  "address": "Suite C203 International Plaza",
  "city": "Tampa",
  "state": "FL"
 },
 {
  "id": 3358815799,
  "name": "Burger King",
  "lat": 34.5026931,
  "lon": -82.6844521,
  "address": "303 Pearman Dairy Road",
  "city": "Anderson",
  "state": "SC"
 },
 {
  "id": 3377396393,
  "name": "Burger King",
  "lat": 33.6881194,
  "lon": -84.4892077,
  "address": "2760 Greenbriar Parkway Southwest",
  "city": "Atlanta",
  "state": "GA"
 },
 {
  "id": 3398689895,
  "name": "Burger King",
  "lat": 43.5142159,
  "lon": -96.7570367,
  "address": "2509 West 41st Street",
  "city": "Sioux Falls",
  "state": "SD"
 },
 {
  "id": 3402044719,
  "name": "Burger King",
  "lat": 39.6050436,
  "lon": -86.1082555,
  "address": "714 U. South 31 South",
  "city": "Greenwood",
  "state": "IN"
 },
 {
  "id": 3415435793,
  "name": "Burger King",
  "lat": 48.5045862,
  "lon": -122.2491146,
  "address": "600 Crossroads Square",
  "city": "Sedro Woolley",
  "state": "WA"
 },
 {
  "id": 3416855555,
  "name": "Burger King",
  "lat": 35.9249967,
  "lon": -79.9824891,
  "address": "2757 South Main Street",
  "city": "High Point",
  "state": "NC"
 },
 {
  "id": 3428323147,
  "name": "Burger King",
  "lat": 42.5295328,
  "lon": -78.4790763,
  "address": "12213 Olean Road",
  "city": "Yorkshire",
  "state": "NY"
 },
 {
  "id": 3431100075,
  "name": "Epik Burger",
  "lat": 30.0627627,
  "lon": -81.506569,
  "address": "",
  "city": "",
  "state": ""
 },
 {
  "id": 3442835482,
  "name": "Burger King",
  "lat": 44.9627549,
  "lon": -92.9625553,
  "address": "7051 10th Street North",
  "city": "Oakdale",
  "state": "MN"
 },
 {
  "id": 3446987740,
  "name": "Burger King",
  "lat": 30.2851492,
  "lon": -89.7780225,
  "address": "185 Gause Boulevard",
  "city": "Slidell",
  "state": "LA"
 },
 {
  "id": 3455732015,
  "name": "Burger King",
  "lat": 47.4627499,
  "lon": -94.8680754,
  "address": "1000 Paul Bunyan Drive Southwest",
  "city": "Bemidji",
  "state": "MN"
 },
 {
  "id": 3474537661,
  "name": "Burger King",
  "lat": 36.1013163,
  "lon": -115.0524433,
  "address": "5536 Boulder Highway",
  "city": "Las Vegas",
  "state": "NV"
 },
 {
  "id": 3477815418,
  "name": "Burger King",
  "lat": 43.0920652,
  "lon": -76.3194077,
  "address": "",
  "city": "",
  "state": ""
 },
 {
  "id": 3480674813,
  "name": "Burger King",
  "lat": 33.8956503,
  "lon": -118.220648,
  "address": "290 East Compton Boulevard",
  "city": "Compton",
  "state": "CA"
 },
 {
  "id": 3483632944,
  "name": "Burger King",
  "lat": 32.5551906,
  "lon": -83.6673661,
  "address": "851 Warren Drive",
  "city": "Warner Robins",
  "state": "GA"
 },
 {
  "id": 3488103901,
  "name": "Burger King",
  "lat": 35.5597045,
  "lon": -82.6356113,
  "address": "298 Smokey Park Highway",
  "city": "Asheville",
  "state": "NC"
 },
 {
  "id": 3511072799,
  "name": "Burger King",
  "lat": 31.130694,
  "lon": -93.2660079,
  "address": "1305 South 5th Street",
  "city": "Leesville",
  "state": "LA"
 },
 {
  "id": 3527272565,
  "name": "Burger King",
  "lat": 28.4735533,
  "lon": -81.4653053,
  "address": "6000 Universal Boulevard",
  "city": "Orlando",
  "state": "FL"
 },
 {
  "id": 3582171993,
  "name": "Burger King",
  "lat": 42.6418568,
  "lon": -83.1700088,
  "address": "2593 Crooks Road",
  "city": "Rochester Hills",
  "state": "MI"
 },
 {
  "id": 3601428975,
  "name": "Burger King",
  "lat": 40.6297083,
  "lon": -77.5683765,
  "address": "102 North Logan Boulevard",
  "city": "Burnham",
  "state": "PA"
 },
 {
  "id": 3621698302,
  "name": "Burger King",
  "lat": 39.1028345,
  "lon": -84.4880539,
  "address": "",
  "city": "",
  "state": ""
 },
 {
  "id": 3634495284,
  "name": "Burger King",
  "lat": 42.6805327,
  "lon": -86.1751241,
  "address": "6411 Blue Star Highway",
  "city": "Saugatuck",
  "state": "MI"
 },
 {
  "id": 3644649004,
  "name": "Burger King",
  "lat": 41.7664363,
  "lon": -72.6734105,
  "address": "811 Main Street",
  "city": "Hartford",
  "state": "CT"
 },
 {
  "id": 3649840786,
  "name": "Burger King",
  "lat": 26.5284574,
  "lon": -81.7522272,
  "address": "",
  "city": "Fort Myers",
  "state": "FL"
 },
 {
  "id": 3656152305,
  "name": "Burger King",
  "lat": 36.5585274,
  "lon": -82.2117469,
  "address": "1397 Volunteer Parkway",
  "city": "Bristol",
  "state": "TN"
 },
 {
  "id": 3658229837,
  "name": "Burger King",
  "lat": 43.8866095,
  "lon": -89.4868068,
  "address": "111 North Pioneer Park Road",
  "city": "Westfield",
  "state": "WI"
 },
 {
  "id": 3658413207,
  "name": "Burger King",
  "lat": 35.0938133,
  "lon": -94.6312668,
  "address": "3110 North Broadway",
  "city": "Poteau",
  "state": "OK"
 },
 {
  "id": 3663994469,
  "name": "Burger King",
  "lat": 39.4782204,
  "lon": -75.0006286,
  "address": "395 South Main Road",
  "city": "Vineland",
  "state": "NJ"
 },
 {
  "id": 3674108503,
  "name": "Burger King",
  "lat": 48.180549,
  "lon": -122.126929,
  "address": "20318 77th Avenue Northeast",
  "city": "Arlington",
  "state": "WA"
 },
 {
  "id": 3678142020,
  "name": "Burger King",
  "lat": 44.5567125,
  "lon": -69.6296976,
  "address": "44 College Avenue",
  "city": "Waterville",
  "state": "ME"
 },
 {
  "id": 3691944577,
  "name": "Burger King",
  "lat": 35.8206092,
  "lon": -80.2384465,
  "address": "290 Talbert Boulevard",
  "city": "Lexington",
  "state": "NC"
 },
 {
  "id": 3707400959,
  "name": "Burger King",
  "lat": 32.5933932,
  "lon": -83.6278075,
  "address": "201 Russell Parkway",
  "city": "Warner Robins",
  "state": "GA"
 },
 {
  "id": 3714107288,
  "name": "Burger King",
  "lat": 40.7494417,
  "lon": -73.8841164,
  "address": "37-07 82nd Street",
  "city": "",
  "state": ""
 },
 {
  "id": 3726353115,
  "name": "Burger King",
  "lat": 40.7816757,
  "lon": -73.0370132,
  "address": "500 Waverly Avenue",
  "city": "Patchogue",
  "state": "NY"
 },
 {
  "id": 3726669195,
  "name": "Burger King",
  "lat": 38.7564996,
  "lon": -104.802549,
  "address": "510 Chiles Avenue",
  "city": "Colorado Springs",
  "state": "CO"
 },
 {
  "id": 3738137043,
  "name": "Burger King",
  "lat": 45.1737531,
  "lon": -113.8873565,
  "address": "1110 Main Street",
  "city": "Salmon",
  "state": "ID"
 },
 {
  "id": 3738715463,
  "name": "Burger King",
  "lat": 40.7049052,
  "lon": -74.0125313,
  "address": "16 Beaver Street",
  "city": "New York",
  "state": "NY"
 },
 {
  "id": 3743198227,
  "name": "Burger King",
  "lat": 42.1851887,
  "lon": -112.238389,
  "address": "235 East 50th South",
  "city": "Malad City",
  "state": "ID"
 },
 {
  "id": 3748097155,
  "name": "Burger King",
  "lat": 37.9634257,
  "lon": -121.2731886,
  "address": "702 North Wilson Way",
  "city": "Stockton",
  "state": "CA"
 },
 {
  "id": 3749948045,
  "name": "Burger King",
  "lat": 41.3662095,
  "lon": -85.0757544,
  "address": "1105 West 7th Street",
  "city": "Auburn",
  "state": "IN"
 },
 {
  "id": 3758400013,
  "name": "Burger King",
  "lat": 42.5617022,
  "lon": -113.793991,
  "address": "114 West 5th North",
  "city": "Burley",
  "state": "ID"
 },
 {
  "id": 3761709559,
  "name": "Burger King",
  "lat": 41.3799606,
  "lon": -82.2229649,
  "address": "46402 Middle Ridge Road",
  "city": "Amherst",
  "state": "OH"
 },
 {
  "id": 3763228142,
  "name": "Burger King",
  "lat": 41.2914565,
  "lon": -81.6756515,
  "address": "10037 Broadview Road",
  "city": "Broadview Heights",
  "state": "OH"
 },
 {
  "id": 3763228143,
  "name": "Burger King",
  "lat": 41.292583,
  "lon": -81.6714189,
  "address": "2000 Edgerton Road",
  "city": "Broadview Heights",
  "state": "OH"
 },
 {
  "id": 3780511304,
  "name": "Burger King",
  "lat": 40.6252481,
  "lon": -103.2381307,
  "address": "1602 West Main Street",
  "city": "Sterling",
  "state": "CO"
 },
 {
  "id": 3781736003,
  "name": "Burger King",
  "lat": 40.261121,
  "lon": -103.772143,
  "address": "1200 Barlow Road",
  "city": "Fort Morgan",
  "state": "CO"
 },
 {
  "id": 3784913412,
  "name": "Burger King",
  "lat": 40.3924447,
  "lon": -74.1015719,
  "address": "858 Highway 35",
  "city": "Middletown",
  "state": "NJ"
 },
 {
  "id": 3786948394,
  "name": "Burger King",
  "lat": 43.4377069,
  "lon": -112.115603,
  "address": "6662 West Overland Drive",
  "city": "Idaho Falls",
  "state": "ID"
 },
 {
  "id": 3793533823,
  "name": "Burger King",
  "lat": 40.9400642,
  "lon": -124.1013753,
  "address": "1645 Heartwood Drive",
  "city": "McKinleyville",
  "state": "CA"
 },
 {
  "id": 3806093192,
  "name": "Burger King",
  "lat": 41.4391613,
  "lon": -97.3543678,
  "address": "2204 23rd Street",
  "city": "Columbus",
  "state": "NE"
 },
 {
  "id": 3807847133,
  "name": "Burger King",
  "lat": 41.5440455,
  "lon": -96.1259993,
  "address": "970 Washington Street",
  "city": "Blair",
  "state": "NE"
 },
 {
  "id": 3812756189,
  "name": "Burger King",
  "lat": 28.0322022,
  "lon": -82.425465,
  "address": "3009 East Busch Boulevard",
  "city": "Tampa",
  "state": "FL"
 },
 {
  "id": 3814821502,
  "name": "Burger King",
  "lat": 41.4505975,
  "lon": -96.471041,
  "address": "2005 East 23rd Street",
  "city": "Fremont",
  "state": "NE"
 },
 {
  "id": 3814845647,
  "name": "Burger King",
  "lat": 41.451832,
  "lon": -96.4978818,
  "address": "204 West 23rd Street",
  "city": "Fremont",
  "state": "NE"
 },
 {
  "id": 3818179109,
  "name": "Burger King",
  "lat": 40.8960357,
  "lon": -98.3402942,
  "address": "2624 South Locust Street",
  "city": "Grand Island",
  "state": "NE"
 },
 {
  "id": 3830211691,
  "name": "Burger King",
  "lat": 40.682147,
  "lon": -99.0862239,
  "address": "802 Third Avenue",
  "city": "kearney",
  "state": "NE"
 },
 {
  "id": 3833494337,
  "name": "Burger King",
  "lat": 40.538572,
  "lon": -122.3544247,
  "address": "",
  "city": "",
  "state": ""
 },
 {
  "id": 3835279137,
  "name": "Burger King",
  "lat": 38.5716278,
  "lon": -94.8564158,
  "address": "302 Hedge Lane",
  "city": "Paola",
  "state": "KS"
 },
 {
  "id": 3845420637,
  "name": "Burger King",
  "lat": 40.8498544,
  "lon": -99.9865928,
  "address": "409 South Meridian Avenue",
  "city": "Cozad",
  "state": "NE"
 },
 {
  "id": 3864112464,
  "name": "Burger King",
  "lat": 37.9374941,
  "lon": -121.2961311,
  "address": "619 West Charter Way",
  "city": "Stockton",
  "state": "CA"
 },
 {
  "id": 3864331938,
  "name": "Burger King",
  "lat": 36.0861247,
  "lon": -115.1386097,
  "address": "",
  "city": "",
  "state": ""
 },
 {
  "id": 3882276145,
  "name": "Burger King",
  "lat": 33.8594301,
  "lon": -117.97602,
  "address": "2751 Orangethorpe Avenue",
  "city": "Fullerton",
  "state": "CA"
 },
 {
  "id": 3892767658,
  "name": "Burger King",
  "lat": 41.703966,
  "lon": -88.12034,
  "address": "1144 Boughton Road",
  "city": "Bolingbrook",
  "state": "IL"
 },
 {
  "id": 3931681174,
  "name": "Burger King",
  "lat": 43.0753924,
  "lon": -87.8814599,
  "address": "2200 East Kenwood Boulevard",
  "city": "Milwaukee",
  "state": "WI"
 },
 {
  "id": 3937963472,
  "name": "Burger King",
  "lat": 35.1249867,
  "lon": -77.0856871,
  "address": "1195 South Glenburnie Road",
  "city": "New Bern",
  "state": "NC"
 },
 {
  "id": 3965324470,
  "name": "Burger King",
  "lat": 43.0488366,
  "lon": -76.2281741,
  "address": "3332 West Genesee Street",
  "city": "Syracuse",
  "state": "NY"
 },
 {
  "id": 3975066957,
  "name": "Burger King",
  "lat": 39.2540976,
  "lon": -81.5548662,
  "address": "514 Division Street",
  "city": "Parkersburg",
  "state": "WV"
 },
 {
  "id": 3992638392,
  "name": "Burger King",
  "lat": 39.1779053,
  "lon": -76.8436203,
  "address": "7106 Minstrel Way",
  "city": "Columbia",
  "state": "MD"
 },
 {
  "id": 3995925161,
  "name": "Burger King",
  "lat": 39.6013585,
  "lon": -110.8237012,
  "address": "121 North Carbonville Road",
  "city": "Price",
  "state": "UT"
 },
 {
  "id": 4001506053,
  "name": "Burger King",
  "lat": 35.369484,
  "lon": -80.7233212,
  "address": "8111 Concord Mills Mall",
  "city": "Concord",
  "state": "NC"
 },
 {
  "id": 4013092605,
  "name": "Burger King",
  "lat": 40.7471949,
  "lon": -74.1481531,
  "address": "751 Harrison Avenue",
  "city": "Harrison",
  "state": "NJ"
 },
 {
  "id": 4015185749,
  "name": "Burger King",
  "lat": 40.8260698,
  "lon": -73.8624223,
  "address": "1841 Bruckner Boulevard",
  "city": "Bronx",
  "state": "NY"
 },
 {
  "id": 4017515514,
  "name": "Burger King",
  "lat": 37.4757285,
  "lon": -105.8948401,
  "address": "2501 West Main",
  "city": "Alamosa",
  "state": "CO"
 },
 {
  "id": 4024198604,
  "name": "Burger King",
  "lat": 39.216781,
  "lon": -76.6755848,
  "address": "",
  "city": "",
  "state": ""
 },
 {
  "id": 4025121013,
  "name": "Burger King",
  "lat": 38.9789187,
  "lon": -104.868397,
  "address": "",
  "city": "",
  "state": ""
 },
 {
  "id": 4037123694,
  "name": "Burger King",
  "lat": 41.3563747,
  "lon": -74.2840312,
  "address": "3 Bryle Place",
  "city": "Chester",
  "state": "NY"
 },
 {
  "id": 4040579496,
  "name": "Burger King",
  "lat": 43.6475559,
  "lon": -70.312129,
  "address": "",
  "city": "Portland",
  "state": "ME"
 },
 {
  "id": 4041375026,
  "name": "Burger King",
  "lat": 38.2353277,
  "lon": -104.659595,
  "address": "",
  "city": "",
  "state": ""
 },
 {
  "id": 4047751136,
  "name": "Burger King",
  "lat": 42.9410326,
  "lon": -123.2867616,
  "address": "180 Gazley Bridge Road",
  "city": "Canyonville",
  "state": "OR"
 },
 {
  "id": 4051085978,
  "name": "Burger King",
  "lat": 39.8334768,
  "lon": -89.6040601,
  "address": "3200 Northfield Drive",
  "city": "Springfield",
  "state": "IL"
 },
 {
  "id": 4058914259,
  "name": "Burger King",
  "lat": 18.4130881,
  "lon": -66.7727101,
  "address": "",
  "city": "",
  "state": ""
 },
 {
  "id": 4059172333,
  "name": "Burger King",
  "lat": 35.790529,
  "lon": -80.8597089,
  "address": "1510 East Broad Street",
  "city": "Statesville",
  "state": "NC"
 },
 {
  "id": 4060516993,
  "name": "Burger King",
  "lat": 38.8126567,
  "lon": -94.5011409,
  "address": "7809 East 171st Street",
  "city": "Belton",
  "state": "MO"
 },
 {
  "id": 4064838269,
  "name": "Burger King",
  "lat": 41.2901465,
  "lon": -96.0806286,
  "address": "10706 Emmet Street",
  "city": "Omaha",
  "state": "NE"
 },
 {
  "id": 4065517136,
  "name": "Burger King",
  "lat": 38.4548665,
  "lon": -121.406275,
  "address": "8338 Power Inn Road",
  "city": "Elk Grove",
  "state": "CA"
 },
 {
  "id": 4079426931,
  "name": "Burger King",
  "lat": 41.2999597,
  "lon": -95.9570519,
  "address": "",
  "city": "",
  "state": ""
 },
 {
  "id": 4082261850,
  "name": "Burger King",
  "lat": 41.2600651,
  "lon": -95.9554282,
  "address": "2912 Dodge Street",
  "city": "Omaha",
  "state": "NE"
 },
 {
  "id": 4092745843,
  "name": "Burger King",
  "lat": 36.5314731,
  "lon": -82.5282947,
  "address": "1209 North Eastman Road",
  "city": "Kingsport",
  "state": "TN"
 },
 {
  "id": 4094915566,
  "name": "Burger King",
  "lat": 41.2766703,
  "lon": -96.0244311,
  "address": "1902 North 72nd Street",
  "city": "Omaha",
  "state": "NE"
 },
 {
  "id": 4098900966,
  "name": "Burger King",
  "lat": 47.3217191,
  "lon": -122.5879562,
  "address": "6908 Kimball Drive",
  "city": "Gig Harbor",
  "state": "WA"
 },
 {
  "id": 4107509017,
  "name": "Burger King",
  "lat": 33.5520242,
  "lon": -80.8283257,
  "address": "3599 Saint Matthews Road",
  "city": "Orangeburg",
  "state": "SC"
 },
 {
  "id": 4113561682,
  "name": "Burger King",
  "lat": 33.9013121,
  "lon": -118.309506,
  "address": "14311 South Western Avenue",
  "city": "gardena",
  "state": "CA"
 },
 {
  "id": 4121340880,
  "name": "Burger King",
  "lat": 39.7696476,
  "lon": -89.7074065,
  "address": "2651 South Veterans Parkway",
  "city": "Springfield",
  "state": "IL"
 },
 {
  "id": 4141785063,
  "name": "Burger King",
  "lat": 34.0381785,
  "lon": -84.305149,
  "address": "2310 Mansell Road",
  "city": "Alpharetta",
  "state": "GA"
 },
 {
  "id": 4150202234,
  "name": "Burger King",
  "lat": 44.7813555,
  "lon": -106.942102,
  "address": "",
  "city": "",
  "state": ""
 },
 {
  "id": 4151896419,
  "name": "Burger King",
  "lat": 46.6057987,
  "lon": -122.9041044,
  "address": "129 Kirkland Road",
  "city": "Chehalis",
  "state": "WA"
 },
 {
  "id": 4169753045,
  "name": "Burger King",
  "lat": 30.2528767,
  "lon": -93.0142426,
  "address": "1111 Lowe-Grout Road",
  "city": "Iowa",
  "state": "LA"
 },
 {
  "id": 4170883611,
  "name": "Burger King",
  "lat": 40.8086856,
  "lon": -91.1407281,
  "address": "120 South Roosevelt Avenue",
  "city": "Burlington",
  "state": "IA"
 },
 {
  "id": 4173824987,
  "name": "Burger King",
  "lat": 41.0062225,
  "lon": -91.9782121,
  "address": "1210 West Burlington Avenue",
  "city": "Fairfield",
  "state": "IA"
 },
 {
  "id": 4175105093,
  "name": "Burger King",
  "lat": 31.2172981,
  "lon": -81.5198991,
  "address": "",
  "city": "",
  "state": ""
 },
 {
  "id": 4189898995,
  "name": "Burger King",
  "lat": 30.6409638,
  "lon": -81.4581801,
  "address": "",
  "city": "",
  "state": ""
 },
 {
  "id": 4199715214,
  "name": "Burger King",
  "lat": 40.6245478,
  "lon": -91.3741497,
  "address": "4805 Avenue O",
  "city": "Fort Madison",
  "state": "IA"
 },
 {
  "id": 4212622887,
  "name": "Burger King",
  "lat": 18.462952,
  "lon": -66.1885178,
  "address": "",
  "city": "",
  "state": ""
 },
 {
  "id": 4214132899,
  "name": "Burger King",
  "lat": 40.4420093,
  "lon": -79.7136627,
  "address": "",
  "city": "",
  "state": ""
 },
 {
  "id": 4217612870,
  "name": "Burger King",
  "lat": 40.7255853,
  "lon": -111.9394937,
  "address": "2104 South Redwood Road",
  "city": "Salt Lake City",
  "state": "UT"
 },
 {
  "id": 4223068501,
  "name": "Burger King",
  "lat": 38.2618366,
  "lon": -76.4614136,
  "address": "",
  "city": "",
  "state": ""
 },
 {
  "id": 4227549137,
  "name": "Burger King",
  "lat": 29.5950503,
  "lon": -95.5262742,
  "address": "2207 Texas Parkway",
  "city": "Missouri City",
  "state": "TX"
 },
 {
  "id": 4235006550,
  "name": "Burger King",
  "lat": 40.7923656,
  "lon": -96.6971723,
  "address": "2045 South 17th Street",
  "city": "Lincoln",
  "state": "NE"
 },
 {
  "id": 4249868380,
  "name": "Burger King",
  "lat": 36.3470087,
  "lon": -84.1619741,
  "address": "2238 Jacksboro Pike",
  "city": "La Follette",
  "state": "TN"
 },
 {
  "id": 4256142517,
  "name": "Burger King",
  "lat": 29.5659346,
  "lon": -97.9445712,
  "address": "550 North Highway 123 Bypass",
  "city": "Seguin",
  "state": "TX"
 },
 {
  "id": 4265507953,
  "name": "Burger King",
  "lat": 32.9014981,
  "lon": -83.687944,
  "address": "3820 Riverside Drive",
  "city": "Macon",
  "state": "GA"
 },
 {
  "id": 4268723992,
  "name": "Burger King",
  "lat": 37.541844,
  "lon": -122.3020284,
  "address": "2817 South El Camino Real",
  "city": "San Mateo",
  "state": "CA"
 },
 {
  "id": 4271960484,
  "name": "Burger King",
  "lat": 38.2509801,
  "lon": -112.646933,
  "address": "1532 South Main Street",
  "city": "Beaver",
  "state": "UT"
 },
 {
  "id": 4271970170,
  "name": "Burger King",
  "lat": 38.9491583,
  "lon": -112.3466618,
  "address": "1060 Highway 99",
  "city": "Fillmore",
  "state": "UT"
 },
 {
  "id": 4299252667,
  "name": "Burger King",
  "lat": 43.889403,
  "lon": -85.5235787,
  "address": "5085 South 220th Avenue",
  "city": "Reed City",
  "state": "MI"
 },
 {
  "id": 4312789816,
  "name": "Burger King",
  "lat": 29.9831973,
  "lon": -90.1054223,
  "address": "",
  "city": "",
  "state": ""
 },
 {
  "id": 4313826541,
  "name": "Burger King",
  "lat": 42.2499854,
  "lon": -83.4448493,
  "address": "41360 Ecorse road",
  "city": "Belleville",
  "state": "MI"
 },
 {
  "id": 4314365561,
  "name": "Burger King",
  "lat": 39.7696436,
  "lon": -105.006967,
  "address": "1717 West 38th Avenue",
  "city": "Denver",
  "state": "CO"
 },
 {
  "id": 4315754165,
  "name": "Burger King",
  "lat": 40.8268608,
  "lon": -73.102974,
  "address": "254 Portion Road",
  "city": "Lake Ronkonkoma",
  "state": "NY"
 },
 {
  "id": 4318975508,
  "name": "Burger King",
  "lat": 39.7852569,
  "lon": -105.025781,
  "address": "4875 Federal Boulevard",
  "city": "Denver",
  "state": "CO"
 },
 {
  "id": 4319802346,
  "name": "Burger King",
  "lat": 46.2262351,
  "lon": -119.2204363,
  "address": "7407 West Canal Drive",
  "city": "Kennewick",
  "state": "WA"
 },
 {
  "id": 4322114091,
  "name": "Burger King",
  "lat": 34.0333311,
  "lon": -84.0500881,
  "address": "",
  "city": "",
  "state": ""
 },
 {
  "id": 4326351275,
  "name": "Burger King",
  "lat": 41.4592789,
  "lon": -87.0675891,
  "address": "555 Morthland Drive",
  "city": "Valparaiso",
  "state": "IN"
 },
 {
  "id": 4327605387,
  "name": "Burger King",
  "lat": 18.4638591,
  "lon": -66.2721194,
  "address": "",
  "city": "",
  "state": ""
 },
 {
  "id": 4332723400,
  "name": "Burger King",
  "lat": 35.9623321,
  "lon": -83.5937254,
  "address": "2942 Winfield Dunn Parkway",
  "city": "Kodak",
  "state": "TN"
 },
 {
  "id": 4334670089,
  "name": "Burger King",
  "lat": 40.3748788,
  "lon": -80.7050484,
  "address": "876 Main Street",
  "city": "wintersville",
  "state": "OH"
 },
 {
  "id": 4339751640,
  "name": "Burger King",
  "lat": 43.0574347,
  "lon": -85.9575846,
  "address": "125 South 68th Avenue",
  "city": "Coopersville",
  "state": "MI"
 },
 {
  "id": 4343369506,
  "name": "Burger King",
  "lat": 39.7853492,
  "lon": -84.0847142,
  "address": "2330 Eighth Street",
  "city": "Wright Pattersn",
  "state": "OH"
 },
 {
  "id": 4354030615,
  "name": "Burger King",
  "lat": 30.4386584,
  "lon": -90.0840279,
  "address": "605 North Highway 190 East",
  "city": "Covington",
  "state": "LA"
 },
 {
  "id": 4359439015,
  "name": "Burger King",
  "lat": 45.8139369,
  "lon": -108.471687,
  "address": "820 Main Street",
  "city": "Billings",
  "state": "MT"
 },
 {
  "id": 4365114710,
  "name": "Burger King",
  "lat": 33.5136326,
  "lon": -80.8604375,
  "address": "1300 Chestnut Street",
  "city": "Orangeburg",
  "state": "SC"
 },
 {
  "id": 4378381953,
  "name": "Burger King",
  "lat": 42.3563183,
  "lon": -71.0619123,
  "address": "128 Tremont Street",
  "city": "Boston",
  "state": "MA"
 },
 {
  "id": 4380085158,
  "name": "Burger King",
  "lat": 39.7791941,
  "lon": -104.951258,
  "address": "3051 East 45th Avenue",
  "city": "Denver",
  "state": "CO"
 },
 {
  "id": 4381096322,
  "name": "Burger King",
  "lat": 39.5092646,
  "lon": -87.3854437,
  "address": "2116 Lafayette Avenue",
  "city": "Terre Haute",
  "state": "IN"
 },
 {
  "id": 4381119898,
  "name": "Burger King",
  "lat": 40.8618904,
  "lon": -76.789648,
  "address": "60 Woodlawn Avenue",
  "city": "Sunbury",
  "state": "PA"
 },
 {
  "id": 4381516844,
  "name": "Burger King",
  "lat": 41.4191824,
  "lon": -81.8326392,
  "address": "19000 Brookpark Road",
  "city": "Cleveland",
  "state": "OH"
 },
 {
  "id": 4382208591,
  "name": "Burger King",
  "lat": 44.2073188,
  "lon": -69.8279147,
  "address": "29 Lewiston Road",
  "city": "West Gardiner",
  "state": "ME"
 },
 {
  "id": 4406182491,
  "name": "Burger King",
  "lat": 35.2204966,
  "lon": -80.9437722,
  "address": "",
  "city": "",
  "state": ""
 },
 {
  "id": 4411929695,
  "name": "Burger King",
  "lat": 40.6899219,
  "lon": -73.4081393,
  "address": "1104 Sunrise Highway",
  "city": "Amityville",
  "state": "NY"
 },
 {
  "id": 4412044592,
  "name": "Burger King",
  "lat": 32.8848699,
  "lon": -80.0372002,
  "address": "5500 International Boulevard",
  "city": "Charleston",
  "state": "SC"
 },
 {
  "id": 4415146693,
  "name": "Burger King",
  "lat": 42.4033953,
  "lon": -71.2347401,
  "address": "822 Lexington Street",
  "city": "Waltham",
  "state": "MA"
 },
 {
  "id": 4422423955,
  "name": "Burger King",
  "lat": 37.9353359,
  "lon": -122.3565047,
  "address": "1300 McDonald Avenue",
  "city": "Richmond",
  "state": "CA"
 },
 {
  "id": 4427101257,
  "name": "Burger King",
  "lat": 35.5577234,
  "lon": -81.0637944,
  "address": "6085 South NC 16 Highway",
  "city": "Denver",
  "state": "NC"
 },
 {
  "id": 4430973489,
  "name": "Burger King",
  "lat": 25.9866645,
  "lon": -80.1257559,
  "address": "2301 East Hallandale Beach Boulevard",
  "city": "",
  "state": ""
 },
 {
  "id": 4432547574,
  "name": "Burger King",
  "lat": 42.1571882,
  "lon": -75.8955851,
  "address": "1250 Front Street",
  "city": "Binghamton",
  "state": "NY"
 },
 {
  "id": 4432832414,
  "name": "Burger King",
  "lat": 41.3609808,
  "lon": -71.812434,
  "address": "99 Franklin Street",
  "city": "Westerly",
  "state": "RI"
 },
 {
  "id": 4435530357,
  "name": "Burger King",
  "lat": 41.0417989,
  "lon": -75.3124482,
  "address": "2623 PA 715",
  "city": "Tannersville",
  "state": "PA"
 },
 {
  "id": 4441429084,
  "name": "Burger King",
  "lat": 35.6474444,
  "lon": -95.9628305,
  "address": "2800 North Wood Drive",
  "city": "Okmulgee",
  "state": "OK"
 },
 {
  "id": 4444583773,
  "name": "Burger King",
  "lat": 42.4365261,
  "lon": -76.4636838,
  "address": "",
  "city": "",
  "state": ""
 },
 {
  "id": 4452657859,
  "name": "Burger King",
  "lat": 46.26305,
  "lon": -119.083383,
  "address": "2205 East Hillsboro",
  "city": "Pasco",
  "state": "WA"
 },
 {
  "id": 4456091892,
  "name": "Burger King",
  "lat": 42.3861986,
  "lon": -71.0096919,
  "address": "944 Bennington Street",
  "city": "East Boston",
  "state": "MA"
 },
 {
  "id": 4482449274,
  "name": "Burger King",
  "lat": 41.7095566,
  "lon": -88.1877129,
  "address": "2060 95th Street",
  "city": "Naperville",
  "state": "IL"
 },